{
"type":"FeatureCollection",
"name":"ma_hospitals",
"crs":{"type":"name","properties":{"name":"urn:ogc:def:crs:OGC:1.3:CRS84"}},
"features":[
{"type":"Feature","properties":{"NAME":"Beth Israel Deaconess Medical Center East","SHORTNAME":"BIDMC East","TOWN":"Boston","BEDCOUNT": 248},"geometry":{"type":"Point","coordinates":[-71.105680605312159,42.339828668349831]}},
{"type":"Feature","properties":{"NAME":"Steward St. Elizabeth's Medical Center","SHORTNAME":"St. Elizabeth's Medical Center","TOWN":"Brighton","BEDCOUNT": 252},"geometry":{"type":"Point","coordinates":[-71.147979746872096,42.349582562430186]}},
{"type":"Feature","properties":{"NAME":"Tufts Medical Center","SHORTNAME":"Tufts Medical Center","TOWN":"Boston","BEDCOUNT": 415},"geometry":{"type":"Point","coordinates":[-71.063515583791499,42.349651806069694]}},
{"type":"Feature","properties":{"NAME":"UMass Memorial Marlborough Hospital","SHORTNAME":"Marlborough Hospital","TOWN":"Marlborough","BEDCOUNT": 79},"geometry":{"type":"Point","coordinates":[-71.554733135583191,42.355303971900391]}},
{"type":"Feature","properties":{"NAME":"Massachusetts Eye and Ear Infirmary","SHORTNAME":"Massachusetts Eye and Ear Infirmary","TOWN":"Boston","BEDCOUNT": 41},"geometry":{"type":"Point","coordinates":[-71.070302069279876,42.362774402721556]}},
{"type":"Feature","properties":{"NAME":"Shriners Hospital For Children - Boston","SHORTNAME":"Shriners Boston","TOWN":"Boston","BEDCOUNT": 30},"geometry":{"type":"Point","coordinates":[-71.06645059319797,42.363088674178151]}},
{"type":"Feature","properties":{"NAME":"Massachusetts General Hospital","SHORTNAME":"Massachusetts General Hospital","TOWN":"Boston","BEDCOUNT": 1035},"geometry":{"type":"Point","coordinates":[-71.068772104126793,42.36320638537201]}},
{"type":"Feature","properties":{"NAME":"Mount Auburn Hospital","SHORTNAME":"Mount Auburn Hospital","TOWN":"Cambridge","BEDCOUNT": 217},"geometry":{"type":"Point","coordinates":[-71.134237731536942,42.373894410361309]}},
{"type":"Feature","properties":{"NAME":"CHA Cambridge Hospital","SHORTNAME":"Cambridge Hospital","TOWN":"Cambridge","BEDCOUNT": 189},"geometry":{"type":"Point","coordinates":[-71.104325770809723,42.374736409207436]}},
{"type":"Feature","properties":{"NAME":"CHA Everett Hospital","SHORTNAME":"Everett Hospital","TOWN":"Everett","BEDCOUNT": 162},"geometry":{"type":"Point","coordinates":[-71.039749694068803,42.40932831657102]}},
{"type":"Feature","properties":{"NAME":"Lawrence Memorial Hospital of Medford","SHORTNAME":"Lawrence Memorial Hospital of Medford","TOWN":"Medford","BEDCOUNT": 98},"geometry":{"type":"Point","coordinates":[-71.111497349292208,42.425969438694402]}},
{"type":"Feature","properties":{"NAME":"Emerson Hospital","SHORTNAME":"Emerson Hospital","TOWN":"Concord","BEDCOUNT": 150},"geometry":{"type":"Point","coordinates":[-71.375983588227129,42.451598916770706]}},
{"type":"Feature","properties":{"NAME":"Melrose-Wakefield Hospital","SHORTNAME":"Melrose-Wakefield Hospital","TOWN":"Melrose","BEDCOUNT": 174},"geometry":{"type":"Point","coordinates":[-71.061108246918408,42.460221791175222]}},
{"type":"Feature","properties":{"NAME":"Winchester Hospital","SHORTNAME":"Winchester Hospital","TOWN":"Winchester","BEDCOUNT": 189},"geometry":{"type":"Point","coordinates":[-71.122785207313626,42.465974585719181]}},
{"type":"Feature","properties":{"NAME":"Berkshire Medical Center","SHORTNAME":"Berkshire Medical Center","TOWN":"Pittsfield","BEDCOUNT": 298},"geometry":{"type":"Point","coordinates":[-73.249727258126953,42.459610953980956]}},
{"type":"Feature","properties":{"NAME":"Lahey Hospital & Medical Center - Burlington","SHORTNAME":"Lahey Hospital & Medical Center","TOWN":"Burlington","BEDCOUNT": 335},"geometry":{"type":"Point","coordinates":[-71.205566881115402,42.484892625051835]}},
{"type":"Feature","properties":{"NAME":"North Shore Medical Center - Union Hospital","SHORTNAME":"Union Hospital","TOWN":"Lynn","BEDCOUNT": 128},"geometry":{"type":"Point","coordinates":[-70.97973220634286,42.501930602102419]}},
{"type":"Feature","properties":{"NAME":"North Shore Medical Center - Salem Hospital","SHORTNAME":"Salem Hospital","TOWN":"Salem","BEDCOUNT": 268},"geometry":{"type":"Point","coordinates":[-70.906658781489682,42.51106625354867]}},
{"type":"Feature","properties":{"NAME":"Lahey Medical Center - Peabody","SHORTNAME":"Lahey Medical Center","TOWN":"Peabody","BEDCOUNT": 10},"geometry":{"type":"Point","coordinates":[-70.946714364351763,42.537432829608989]}},
{"type":"Feature","properties":{"NAME":"UMass Memorial HealthAlliance-Clinton Hospital Leominster","SHORTNAME":"HealthAlliance Hospital - Leominster Campus","TOWN":"Leominster","BEDCOUNT": 122},"geometry":{"type":"Point","coordinates":[-71.762145015452589,42.540657569720523]}},
{"type":"Feature","properties":{"NAME":"Steward Nashoba Valley Medical Center","SHORTNAME":"Nashoba Valley Medical Center","TOWN":"Ayer","BEDCOUNT": 77},"geometry":{"type":"Point","coordinates":[-71.573989039672213,42.577502021126193]}},
{"type":"Feature","properties":{"NAME":"Heywood Hospital","SHORTNAME":"Heywood Memorial Hospital","TOWN":"Gardner","BEDCOUNT": 134},"geometry":{"type":"Point","coordinates":[-71.987085672347078,42.586364973952783]}},
{"type":"Feature","properties":{"NAME":"Athol Memorial Hospital","SHORTNAME":"Athol Hospital","TOWN":"Athol","BEDCOUNT": 25},"geometry":{"type":"Point","coordinates":[-72.208872028710772,42.585414852889073]}},
{"type":"Feature","properties":{"NAME":"Baystate Franklin Medical Center","SHORTNAME":"Baystate Franklin Medical Center","TOWN":"Greenfield","BEDCOUNT": 89},"geometry":{"type":"Point","coordinates":[-72.592291057891401,42.595892201908867]}},
{"type":"Feature","properties":{"NAME":"Northeast Hospital - Addison Gilbert Campus","SHORTNAME":"Addison Gilbert Hospital","TOWN":"Gloucester","BEDCOUNT": 79},"geometry":{"type":"Point","coordinates":[-70.680654545127311,42.625203478953281]}},
{"type":"Feature","properties":{"NAME":"Lowell General Hospital - Saints Campus","SHORTNAME":"Lowell General Hospital - Saints Campus","TOWN":"Lowell","BEDCOUNT": 157},"geometry":{"type":"Point","coordinates":[-71.301189509325283,42.645699411051574]}},
{"type":"Feature","properties":{"NAME":"Lowell General Hospital","SHORTNAME":"Lowell General Hospital","TOWN":"Lowell","BEDCOUNT": 239},"geometry":{"type":"Point","coordinates":[-71.341758525754315,42.647464784701988]}},
{"type":"Feature","properties":{"NAME":"Nantucket Cottage Hospital","SHORTNAME":"Nantucket Cottage Hospital","TOWN":"Nantucket","BEDCOUNT": 19},"geometry":{"type":"Point","coordinates":[-70.100851165037369,41.275279603378038]}},
{"type":"Feature","properties":{"NAME":"Martha's Vineyard Hospital","SHORTNAME":"Martha's Vineyard Hospital","TOWN":"Oak Bluffs","BEDCOUNT": 25},"geometry":{"type":"Point","coordinates":[-70.579603776078216,41.460455479504986]}},
{"type":"Feature","properties":{"NAME":"Falmouth Hospital","SHORTNAME":"Falmouth Hospital","TOWN":"Falmouth","BEDCOUNT": 95},"geometry":{"type":"Point","coordinates":[-70.622665818873912,41.564267786775162]}},
{"type":"Feature","properties":{"NAME":"Southcoast Health - St. Luke's Hospital","SHORTNAME":"St. Luke's Hospital","TOWN":"New Bedford","BEDCOUNT": 391},"geometry":{"type":"Point","coordinates":[-70.939234380104537,41.627811620627021]}},
{"type":"Feature","properties":{"NAME":"Cape Cod Hospital","SHORTNAME":"Cape Cod Hospital","TOWN":"Hyannis","BEDCOUNT": 252},"geometry":{"type":"Point","coordinates":[-70.273303727796787,41.653209911721987]}},
{"type":"Feature","properties":{"NAME":"Steward Saint Anne's Hospital","SHORTNAME":"Saint Anne's Hospital","TOWN":"Fall River","BEDCOUNT": 185},"geometry":{"type":"Point","coordinates":[-71.163708657631929,41.692518646836966]}},
{"type":"Feature","properties":{"NAME":"Southcoast Health - Charlton Memorial Hospital","SHORTNAME":"Charlton Memorial Hospital","TOWN":"Fall River","BEDCOUNT": 328},"geometry":{"type":"Point","coordinates":[-71.146442940758291,41.709924761233076]}},
{"type":"Feature","properties":{"NAME":"Southcoast Health - Tobey Hospital","SHORTNAME":"Tobey Hospital","TOWN":"Wareham","BEDCOUNT": 74},"geometry":{"type":"Point","coordinates":[-70.714144850692435,41.756113373744867]}},
{"type":"Feature","properties":{"NAME":"Steward Morton Hospital","SHORTNAME":"Morton Hospital","TOWN":"Taunton","BEDCOUNT": 125},"geometry":{"type":"Point","coordinates":[-71.094407073597139,41.906180244848038]}},
{"type":"Feature","properties":{"NAME":"Sturdy Memorial Hospital","SHORTNAME":"Sturdy Memorial Hospital","TOWN":"Attleboro","BEDCOUNT": 132},"geometry":{"type":"Point","coordinates":[-71.274934277301654,41.942073222600655]}},
{"type":"Feature","properties":{"NAME":"Beth Israel Deaconess Hospital - Plymouth","SHORTNAME":"Beth Israel Plymouth","TOWN":"Plymouth","BEDCOUNT": 160},"geometry":{"type":"Point","coordinates":[-70.645282211677284,41.9429908839126]}},
{"type":"Feature","properties":{"NAME":"Harrington Memorial Hospital","SHORTNAME":"Harrington Memorial Hospital","TOWN":"Southbridge","BEDCOUNT": 114},"geometry":{"type":"Point","coordinates":[-72.042024862719288,42.078537919726159]}},
{"type":"Feature","properties":{"NAME":"Signature Healthcare Brockton Hospital","SHORTNAME":"Brockton Hospital","TOWN":"Brockton","BEDCOUNT": 197},"geometry":{"type":"Point","coordinates":[-70.991635434502939,42.087756695176594]}},
{"type":"Feature","properties":{"NAME":"Steward Good Samaritan Medical Center","SHORTNAME":"Good Samaritan Medical Center","TOWN":"Brockton","BEDCOUNT": 224},"geometry":{"type":"Point","coordinates":[-71.061711765557348,42.09772951025186]}},
{"type":"Feature","properties":{"NAME":"Mercy Medical Center","SHORTNAME":"Mercy Medical Center","TOWN":"Springfield","BEDCOUNT": 229},"geometry":{"type":"Point","coordinates":[-72.593680593884883,42.115277456165217]}},
{"type":"Feature","properties":{"NAME":"Baystate Noble Hospital","SHORTNAME":"Baystate Noble Hospital","TOWN":"Westfield","BEDCOUNT": 97},"geometry":{"type":"Point","coordinates":[-72.759758869836261,42.118025060188899]}},
{"type":"Feature","properties":{"NAME":"Shriners Hospital For Children - Springfield","SHORTNAME":"Shriners Springfield","TOWN":"Springfield","BEDCOUNT": 40},"geometry":{"type":"Point","coordinates":[-72.592747492171313,42.121220336435428]}},
{"type":"Feature","properties":{"NAME":"Baystate Medical Center","SHORTNAME":"Baystate Medical Center","TOWN":"Springfield","BEDCOUNT": 710},"geometry":{"type":"Point","coordinates":[-72.603147883304644,42.122104084028507]}},
{"type":"Feature","properties":{"NAME":"Milford Regional Medical Center","SHORTNAME":"Milford Regional Medical Center","TOWN":"Milford","BEDCOUNT": 145},"geometry":{"type":"Point","coordinates":[-71.528695562463554,42.133187134799932]}},
{"type":"Feature","properties":{"NAME":"Baystate Wing Hospital And Medical Centers","SHORTNAME":"Baystate Wing Hospital","TOWN":"Palmer","BEDCOUNT": 74},"geometry":{"type":"Point","coordinates":[-72.341727644228371,42.169705539563658]}},
{"type":"Feature","properties":{"NAME":"South Shore Hospital","SHORTNAME":"South Shore Hospital","TOWN":"Weymouth","BEDCOUNT": 370},"geometry":{"type":"Point","coordinates":[-70.954206055560931,42.17572455251824]}},
{"type":"Feature","properties":{"NAME":"Steward Norwood Hospital","SHORTNAME":"Norwood Hospital","TOWN":"Norwood","BEDCOUNT": 215},"geometry":{"type":"Point","coordinates":[-71.202060731962248,42.188579592319861]}},
{"type":"Feature","properties":{"NAME":"Holyoke Medical Center","SHORTNAME":"Holyoke Medical Center","TOWN":"Holyoke","BEDCOUNT": 198},"geometry":{"type":"Point","coordinates":[-72.627472959979784,42.200321061829769]}},
{"type":"Feature","properties":{"NAME":"Fairview Hospital","SHORTNAME":"Fairview Hospital","TOWN":"Great Barrington","BEDCOUNT": 25},"geometry":{"type":"Point","coordinates":[-73.371916726083654,42.191090748403475]}},
{"type":"Feature","properties":{"NAME":"Beth Israel Deaconess Hospital - Milton","SHORTNAME":"Beth Israel Milton","TOWN":"Milton","BEDCOUNT": 88},"geometry":{"type":"Point","coordinates":[-71.077645172333547,42.251530447622542]}},
{"type":"Feature","properties":{"NAME":"Saint Vincent Hospital","SHORTNAME":"Saint Vincent Hospital","TOWN":"Worcester","BEDCOUNT": 283},"geometry":{"type":"Point","coordinates":[-71.796999693615916,42.264649703732019]}},
{"type":"Feature","properties":{"NAME":"UMass Memorial Medical Center - Memorial Campus","SHORTNAME":"UMass Memorial Campus","TOWN":"Worcester","BEDCOUNT": 303},"geometry":{"type":"Point","coordinates":[-71.792250241003174,42.272941640109487]}},
{"type":"Feature","properties":{"NAME":"Beth Israel Deaconess Hospital - Needham","SHORTNAME":"Beth Israel Needham","TOWN":"Needham","BEDCOUNT": 58},"geometry":{"type":"Point","coordinates":[-71.23665236730433,42.277175338023945]}},
{"type":"Feature","properties":{"NAME":"UMass Memorial Medical Center - University Campus","SHORTNAME":"UMass University Campus","TOWN":"Worcester","BEDCOUNT": 431},"geometry":{"type":"Point","coordinates":[-71.761671515846317,42.27756489981666]}},
{"type":"Feature","properties":{"NAME":"Steward Carney Hospital","SHORTNAME":"Carney Hospital","TOWN":"Boston","BEDCOUNT": 159},"geometry":{"type":"Point","coordinates":[-71.066050588901746,42.278038657832823]}},
{"type":"Feature","properties":{"NAME":"Metrowest Medical Center-Leonard Morse Hospital","SHORTNAME":"Leonard Morse Hospital","TOWN":"Natick","BEDCOUNT": 160},"geometry":{"type":"Point","coordinates":[-71.335375985571801,42.280341562627704]}},
{"type":"Feature","properties":{"NAME":"Metrowest Medical Center-Framingham Union Hospital","SHORTNAME":"Framingham Union Hospital","TOWN":"Framingham","BEDCOUNT": 147},"geometry":{"type":"Point","coordinates":[-71.41860522711184,42.284332421866729]}},
{"type":"Feature","properties":{"NAME":"Brigham and Women's Faulkner Hospital","SHORTNAME":"Brigham and Women's Faulkner Hospital","TOWN":"Boston","BEDCOUNT": 162},"geometry":{"type":"Point","coordinates":[-71.128174618449137,42.301443960051721]}},
{"type":"Feature","properties":{"NAME":"New England Baptist Hospital","SHORTNAME":"New England Baptist Hospital","TOWN":"Boston","BEDCOUNT": 118},"geometry":{"type":"Point","coordinates":[-71.106730604168433,42.329748665740716]}},
{"type":"Feature","properties":{"NAME":"Newton-Wellesley Hospital","SHORTNAME":"Newton-Wellesley Hospital","TOWN":"Newton","BEDCOUNT": 265},"geometry":{"type":"Point","coordinates":[-71.24576849785042,42.330759449243907]}},
{"type":"Feature","properties":{"NAME":"Boston Medical Center - Menino Pavilion","SHORTNAME":"BMC - Menino Pavilion","TOWN":"Boston","BEDCOUNT": 288},"geometry":{"type":"Point","coordinates":[-71.072957669040605,42.334722477231779]}},
{"type":"Feature","properties":{"NAME":"Cooley Dickinson Hospital","SHORTNAME":"Cooley Dickinson Hospital","TOWN":"Northampton","BEDCOUNT": 140},"geometry":{"type":"Point","coordinates":[-72.653728588690171,42.330429292181257]}},
{"type":"Feature","properties":{"NAME":"Brigham and Women's Hospital","SHORTNAME":"Brigham and Women's Hospital","TOWN":"Boston","BEDCOUNT": 763},"geometry":{"type":"Point","coordinates":[-71.107481073807904,42.336115156206006]}},
{"type":"Feature","properties":{"NAME":"Boston Medical Center - Newton Pavilion","SHORTNAME":"BMC - Newton Pavilion","TOWN":"Boston","BEDCOUNT": 214},"geometry":{"type":"Point","coordinates":[-71.070882032241627,42.336862486135487]}},
{"type":"Feature","properties":{"NAME":"Boston Children's Hospital","SHORTNAME":"Boston Children's Hospital","TOWN":"Boston","BEDCOUNT": 404},"geometry":{"type":"Point","coordinates":[-71.104882855874322,42.33747447447724]}},
{"type":"Feature","properties":{"NAME":"Dana-Farber Cancer Institute","SHORTNAME":"Dana-Farber Cancer Institute","TOWN":"Boston","BEDCOUNT": 0},"geometry":{"type":"Point","coordinates":[-71.108279775177991,42.33760208973785]}},
{"type":"Feature","properties":{"NAME":"Beth Israel Deaconess Medical Center West","SHORTNAME":"BIDMC West","TOWN":"Boston","BEDCOUNT": 405},"geometry":{"type":"Point","coordinates":[-71.109080606031156,42.337808666913801]}},
{"type":"Feature","properties":{"NAME":"UMass Memorial HealthAlliance-Clinton Hospital","SHORTNAME":"HealthAlliance-Clinton Hospital","TOWN":"Clinton","BEDCOUNT": 41},"geometry":{"type":"Point","coordinates":[-71.69247170804735,42.427386031756924]}},
{"type":"Feature","properties":{"NAME":"Northeast Hospital - Beverly Hospital Campus","SHORTNAME":"Beverly Hospital","TOWN":"Beverly","BEDCOUNT": 223},"geometry":{"type":"Point","coordinates":[-70.8754624808915,42.563908771224973]}},
{"type":"Feature","properties":{"NAME":"Lawrence General Hospital","SHORTNAME":"Lawrence General Hospital","TOWN":"Lawrence","BEDCOUNT": 189},"geometry":{"type":"Point","coordinates":[-71.149261092782822,42.709633601688111]}},
{"type":"Feature","properties":{"NAME":"Steward Holy Family Hospital - Methuen","SHORTNAME":"Holy Family Hospital-Methuen","TOWN":"Methuen","BEDCOUNT": 223},"geometry":{"type":"Point","coordinates":[-71.168393792660737,42.727778202491457]}},
{"type":"Feature","properties":{"NAME":"Steward Holy Family Hospital - Haverhill","SHORTNAME":"Holy Family Hospital-Haverhill","TOWN":"Haverhill","BEDCOUNT": 124},"geometry":{"type":"Point","coordinates":[-71.045054404046368,42.765143830010544]}},
{"type":"Feature","properties":{"NAME":"Anna Jaques Hospital","SHORTNAME":"Anna Jaques Hospital","TOWN":"Newburyport","BEDCOUNT": 111},"geometry":{"type":"Point","coordinates":[-70.891079307572468,42.814377292328061]}}
]
}
