{
"type": "FeatureCollection",
"name": "mi_colleges",
"crs": { "type": "name", "properties": { "name": "urn:ogc:def:crs:OGC:1.3:CRS84" } },
"features": [
{ "type": "Feature", "properties": { "NAME": "CLEARY UNIVERSITY", "CITY": "HOWELL", "DORM_CAP": 102 }, "geometry": { "type": "Point", "coordinates": [ -83.880429, 42.587486 ] } },
{ "type": "Feature", "properties": { "NAME": "GRACE BIBLE COLLEGE", "CITY": "WYOMING", "DORM_CAP": 190 }, "geometry": { "type": "Point", "coordinates": [ -85.692077, 42.919541 ] } },
{ "type": "Feature", "properties": { "NAME": "HOPE COLLEGE", "CITY": "HOLLAND", "DORM_CAP": 2456 }, "geometry": { "type": "Point", "coordinates": [ -86.105375, 42.788052 ] } },
{ "type": "Feature", "properties": { "NAME": "LANSING COMMUNITY COLLEGE", "CITY": "LANSING", "DORM_CAP": -999 }, "geometry": { "type": "Point", "coordinates": [ -84.551701, 42.738941 ] } },
{ "type": "Feature", "properties": { "NAME": "CORNERSTONE UNIVERSITY", "CITY": "GRAND RAPIDS", "DORM_CAP": 763 }, "geometry": { "type": "Point", "coordinates": [ -85.595328, 42.979966 ] } },
{ "type": "Feature", "properties": { "NAME": "MADONNA UNIVERSITY", "CITY": "LIVONIA", "DORM_CAP": 454 }, "geometry": { "type": "Point", "coordinates": [ -83.407458, 42.387072 ] } },
{ "type": "Feature", "properties": { "NAME": "U.S. TRUCK DRIVER TRAINING SCHOOL", "CITY": "STERLING HEIGHTS", "DORM_CAP": -999 }, "geometry": { "type": "Point", "coordinates": [ -83.043, 42.550234 ] } },
{ "type": "Feature", "properties": { "NAME": "WESTERN MICHIGAN UNIVERSITY HOMER STRYKER M.D. SCHOOL OF MEDICINE", "CITY": "KALAMAZOO", "DORM_CAP": -999 }, "geometry": { "type": "Point", "coordinates": [ -85.599511, 42.283057 ] } },
{ "type": "Feature", "properties": { "NAME": "DAVENPORT UNIVERSITY - WAYNE CCCD", "CITY": "BELLEVILLE", "DORM_CAP": -999 }, "geometry": { "type": "Point", "coordinates": [ -83.438997, 42.232675 ] } },
{ "type": "Feature", "properties": { "NAME": "METRO DETROIT BARBER COLLEGE", "CITY": "DETROIT", "DORM_CAP": -999 }, "geometry": { "type": "Point", "coordinates": [ -83.145985, 42.416899 ] } },
{ "type": "Feature", "properties": { "NAME": "CAREER QUEST LEARNING CENTER-MT. PLEASANT", "CITY": "MOUNT PLEASANT", "DORM_CAP": -999 }, "geometry": { "type": "Point", "coordinates": [ -84.768371, 43.581195 ] } },
{ "type": "Feature", "properties": { "NAME": "DAVENPORT UNIVERSITY - MACOMB CC", "CITY": "CLINTON TOWNSHIP", "DORM_CAP": -999 }, "geometry": { "type": "Point", "coordinates": [ -82.956367, 42.622207 ] } },
{ "type": "Feature", "properties": { "NAME": "DAVENPORT UNIVERSITY - SCHOOLCRAFT COLLEGE", "CITY": "LIVONIA", "DORM_CAP": -999 }, "geometry": { "type": "Point", "coordinates": [ -83.430179, 42.420152 ] } },
{ "type": "Feature", "properties": { "NAME": "ROSS MEDICAL EDUCATION CENTER - KALAMAZOO", "CITY": "KALAMAZOO", "DORM_CAP": -999 }, "geometry": { "type": "Point", "coordinates": [ -85.651838, 42.290533 ] } },
{ "type": "Feature", "properties": { "NAME": "ROSS MEDICAL EDUCATION CENTER-GRAND RAPIDS NORTH", "CITY": "GRAND RAPIDS", "DORM_CAP": -999 }, "geometry": { "type": "Point", "coordinates": [ -85.629, 43.035312 ] } },
{ "type": "Feature", "properties": { "NAME": "MIAT COLLEGE OF TECHNOLOGY", "CITY": "CANTON", "DORM_CAP": -999 }, "geometry": { "type": "Point", "coordinates": [ -83.445582, 42.286208 ] } },
{ "type": "Feature", "properties": { "NAME": "ALTIERUS CAREER EDUCATION-SOUTHFIELD", "CITY": "SOUTHFIELD", "DORM_CAP": -999 }, "geometry": { "type": "Point", "coordinates": [ -83.261392, 42.448206 ] } },
{ "type": "Feature", "properties": { "NAME": "DOUGLAS J AVEDA INSTITUTE", "CITY": "EAST LANSING", "DORM_CAP": -999 }, "geometry": { "type": "Point", "coordinates": [ -84.480514, 42.734656 ] } },
{ "type": "Feature", "properties": { "NAME": "THE ART INSTITUTE OF MICHIGAN", "CITY": "NOVI", "DORM_CAP": 44 }, "geometry": { "type": "Point", "coordinates": [ -83.443123, 42.499761 ] } },
{ "type": "Feature", "properties": { "NAME": "ELEVATE SALON INSTITUTE", "CITY": "ROYAL OAK", "DORM_CAP": -999 }, "geometry": { "type": "Point", "coordinates": [ -83.164617, 42.5249 ] } },
{ "type": "Feature", "properties": { "NAME": "OAKLAND COMMUNITY COLLEGE", "CITY": "BLOOMFIELD HILLS", "DORM_CAP": -999 }, "geometry": { "type": "Point", "coordinates": [ -83.244787, 42.595441 ] } },
{ "type": "Feature", "properties": { "NAME": "MICHIGAN COLLEGE OF BEAUTY-MONROE", "CITY": "MONROE", "DORM_CAP": -999 }, "geometry": { "type": "Point", "coordinates": [ -83.407403, 41.907403 ] } },
{ "type": "Feature", "properties": { "NAME": "MACOMB COMMUNITY COLLEGE", "CITY": "WARREN", "DORM_CAP": -999 }, "geometry": { "type": "Point", "coordinates": [ -82.972144, 42.505281 ] } },
{ "type": "Feature", "properties": { "NAME": "MR BELA'S SCHOOL OF COSMETOLOGY INC", "CITY": "WARREN", "DORM_CAP": -999 }, "geometry": { "type": "Point", "coordinates": [ -83.06557, 42.490161 ] } },
{ "type": "Feature", "properties": { "NAME": "ANDREWS UNIVERSITY", "CITY": "BERRIEN SPRINGS", "DORM_CAP": 1264 }, "geometry": { "type": "Point", "coordinates": [ -86.357045, 41.962449 ] } },
{ "type": "Feature", "properties": { "NAME": "ROSS MEDICAL EDUCATION CENTER-MIDLAND", "CITY": "MIDLAND", "DORM_CAP": -999 }, "geometry": { "type": "Point", "coordinates": [ -84.258017, 43.641877 ] } },
{ "type": "Feature", "properties": { "NAME": "DETROIT BUSINESS INSTITUTE-DOWNRIVER", "CITY": "RIVERVIEW", "DORM_CAP": -999 }, "geometry": { "type": "Point", "coordinates": [ -83.18982, 42.169637 ] } },
{ "type": "Feature", "properties": { "NAME": "WESTERN MICHIGAN UNIVERSITY-THOMAS M. COOLEY LAW SCHOOL", "CITY": "LANSING", "DORM_CAP": -999 }, "geometry": { "type": "Point", "coordinates": [ -84.554429, 42.731 ] } },
{ "type": "Feature", "properties": { "NAME": "OAKLAND UNIVERSITY", "CITY": "ROCHESTER HILLS", "DORM_CAP": 2685 }, "geometry": { "type": "Point", "coordinates": [ -83.216414, 42.674569 ] } },
{ "type": "Feature", "properties": { "NAME": "UNIVERSITY OF MICHIGAN-DEARBORN", "CITY": "DEARBORN", "DORM_CAP": -999 }, "geometry": { "type": "Point", "coordinates": [ -83.231417, 42.317287 ] } },
{ "type": "Feature", "properties": { "NAME": "DORSEY BUSINESS SCHOOLS-SAGINAW", "CITY": "SAGINAW", "DORM_CAP": -999 }, "geometry": { "type": "Point", "coordinates": [ -83.973096, 43.47058 ] } },
{ "type": "Feature", "properties": { "NAME": "ABCOTT INSTITUTE", "CITY": "SOUTHFIELD", "DORM_CAP": -999 }, "geometry": { "type": "Point", "coordinates": [ -83.210617, 42.446327 ] } },
{ "type": "Feature", "properties": { "NAME": "CONCORDIA UNIVERSITY-ANN ARBOR", "CITY": "ANN ARBOR", "DORM_CAP": 468 }, "geometry": { "type": "Point", "coordinates": [ -83.682448, 42.27416 ] } },
{ "type": "Feature", "properties": { "NAME": "UNIVERSITY OF DETROIT MERCY", "CITY": "DETROIT", "DORM_CAP": 965 }, "geometry": { "type": "Point", "coordinates": [ -83.135932, 42.414237 ] } },
{ "type": "Feature", "properties": { "NAME": "DORSEY BUSINESS SCHOOLS-SOUTHGATE", "CITY": "SOUTHGATE", "DORM_CAP": -999 }, "geometry": { "type": "Point", "coordinates": [ -83.215663, 42.213026 ] } },
{ "type": "Feature", "properties": { "NAME": "UNIVERSITY OF MICHIGAN-ANN ARBOR", "CITY": "ANN ARBOR", "DORM_CAP": 12304 }, "geometry": { "type": "Point", "coordinates": [ -83.736564, 42.27803 ] } },
{ "type": "Feature", "properties": { "NAME": "WALSH COLLEGE OF ACCOUNTANCY AND BUSINESS ADMINISTRATION", "CITY": "TROY", "DORM_CAP": -999 }, "geometry": { "type": "Point", "coordinates": [ -83.147197, 42.573888 ] } },
{ "type": "Feature", "properties": { "NAME": "WAYNE STATE UNIVERSITY", "CITY": "DETROIT", "DORM_CAP": 2418 }, "geometry": { "type": "Point", "coordinates": [ -83.072864, 42.35861 ] } },
{ "type": "Feature", "properties": { "NAME": "WEST MICHIGAN COLLEGE OF BARBERING AND BEAUTY", "CITY": "KALAMAZOO", "DORM_CAP": -999 }, "geometry": { "type": "Point", "coordinates": [ -85.590238, 42.259276 ] } },
{ "type": "Feature", "properties": { "NAME": "ALBION COLLEGE", "CITY": "ALBION", "DORM_CAP": 1681 }, "geometry": { "type": "Point", "coordinates": [ -84.746088, 42.244603 ] } },
{ "type": "Feature", "properties": { "NAME": "ALMA COLLEGE", "CITY": "ALMA", "DORM_CAP": 1369 }, "geometry": { "type": "Point", "coordinates": [ -84.670073, 43.379236 ] } },
{ "type": "Feature", "properties": { "NAME": "WRIGHT BEAUTY ACADEMY", "CITY": "BATTLE CREEK", "DORM_CAP": -999 }, "geometry": { "type": "Point", "coordinates": [ -85.196799, 42.308701 ] } },
{ "type": "Feature", "properties": { "NAME": "DORSEY BUSINESS SCHOOLS-ROSEVILLE", "CITY": "ROSEVILLE", "DORM_CAP": -999 }, "geometry": { "type": "Point", "coordinates": [ -82.915541, 42.527764 ] } },
{ "type": "Feature", "properties": { "NAME": "AQUINAS COLLEGE", "CITY": "GRAND RAPIDS", "DORM_CAP": 909 }, "geometry": { "type": "Point", "coordinates": [ -85.625303, 42.960647 ] } },
{ "type": "Feature", "properties": { "NAME": "UNIVERSITY OF MICHIGAN-FLINT", "CITY": "FLINT", "DORM_CAP": 715 }, "geometry": { "type": "Point", "coordinates": [ -83.687663, 43.019902 ] } },
{ "type": "Feature", "properties": { "NAME": "TWIN CITY BEAUTY COLLEGE", "CITY": "SAINT JOSEPH", "DORM_CAP": -999 }, "geometry": { "type": "Point", "coordinates": [ -86.475755, 42.071281 ] } },
{ "type": "Feature", "properties": { "NAME": "WASHTENAW COMMUNITY COLLEGE", "CITY": "ANN ARBOR", "DORM_CAP": -999 }, "geometry": { "type": "Point", "coordinates": [ -83.664928, 42.263311 ] } },
{ "type": "Feature", "properties": { "NAME": "WESTERN THEOLOGICAL SEMINARY", "CITY": "HOLLAND", "DORM_CAP": -999 }, "geometry": { "type": "Point", "coordinates": [ -86.10324, 42.786246 ] } },
{ "type": "Feature", "properties": { "NAME": "WEST SHORE COMMUNITY COLLEGE", "CITY": "SCOTTVILLE", "DORM_CAP": -999 }, "geometry": { "type": "Point", "coordinates": [ -86.336122, 44.008512 ] } },
{ "type": "Feature", "properties": { "NAME": "YESHIVA GEDOLAH OF GREATER DETROIT", "CITY": "OAK PARK", "DORM_CAP": 70 }, "geometry": { "type": "Point", "coordinates": [ -83.200754, 42.471924 ] } },
{ "type": "Feature", "properties": { "NAME": "ADRIAN COLLEGE", "CITY": "ADRIAN", "DORM_CAP": 1576 }, "geometry": { "type": "Point", "coordinates": [ -84.059911, 41.898628 ] } },
{ "type": "Feature", "properties": { "NAME": "SIENA HEIGHTS UNIVERSITY", "CITY": "ADRIAN", "DORM_CAP": 661 }, "geometry": { "type": "Point", "coordinates": [ -84.01528, 41.905782 ] } },
{ "type": "Feature", "properties": { "NAME": "THE SALON PROFESSIONAL ACADEMY", "CITY": "BATTLE CREEK", "DORM_CAP": -999 }, "geometry": { "type": "Point", "coordinates": [ -85.224138, 42.297794 ] } },
{ "type": "Feature", "properties": { "NAME": "L'ESPRIT ACADEMY", "CITY": "LIVONIA", "DORM_CAP": -999 }, "geometry": { "type": "Point", "coordinates": [ -83.354807, 42.382129 ] } },
{ "type": "Feature", "properties": { "NAME": "MARKETTI ACADEMY OF COSMETOLOGY", "CITY": "WATERFORD", "DORM_CAP": -999 }, "geometry": { "type": "Point", "coordinates": [ -83.375192, 42.683049 ] } },
{ "type": "Feature", "properties": { "NAME": "DORSEY BUSINESS SCHOOLS-WATERFORD PONTIAC", "CITY": "PONTIAC", "DORM_CAP": -999 }, "geometry": { "type": "Point", "coordinates": [ -83.32499, 42.644428 ] } },
{ "type": "Feature", "properties": { "NAME": "COMPASS COLLEGE OF CINEMATIC ARTS", "CITY": "GRAND RAPIDS", "DORM_CAP": -999 }, "geometry": { "type": "Point", "coordinates": [ -85.667072, 42.961895 ] } },
{ "type": "Feature", "properties": { "NAME": "ITT TECHNICAL INSTITUTE-DEARBORN", "CITY": "DEARBORN", "DORM_CAP": -999 }, "geometry": { "type": "Point", "coordinates": [ -83.264139, 42.303311 ] } },
{ "type": "Feature", "properties": { "NAME": "ROSS MEDICAL EDUCATION CENTER-CANTON", "CITY": "CANTON", "DORM_CAP": -999 }, "geometry": { "type": "Point", "coordinates": [ -83.482012, 42.323617 ] } },
{ "type": "Feature", "properties": { "NAME": "ROSS MEDICAL EDUCATION CENTER-DAVISON", "CITY": "DAVISON", "DORM_CAP": -999 }, "geometry": { "type": "Point", "coordinates": [ -83.516542, 43.021765 ] } },
{ "type": "Feature", "properties": { "NAME": "CREATIVE HAIR SCHOOL OF COSMETOLOGY", "CITY": "FLINT", "DORM_CAP": -999 }, "geometry": { "type": "Point", "coordinates": [ -83.735143, 43.059254 ] } },
{ "type": "Feature", "properties": { "NAME": "FLINT INSTITUTE OF BARBERING INC", "CITY": "FLINT", "DORM_CAP": -999 }, "geometry": { "type": "Point", "coordinates": [ -83.73911, 43.027339 ] } },
{ "type": "Feature", "properties": { "NAME": "ITT TECHNICAL INSTITUTE-TROY", "CITY": "TROY", "DORM_CAP": -999 }, "geometry": { "type": "Point", "coordinates": [ -83.117242, 42.562582 ] } },
{ "type": "Feature", "properties": { "NAME": "ROSS MEDICAL EDUCATION CENTER-BRIGHTON", "CITY": "BRIGHTON", "DORM_CAP": -999 }, "geometry": { "type": "Point", "coordinates": [ -83.798085, 42.544378 ] } },
{ "type": "Feature", "properties": { "NAME": "ROSS MEDICAL EDUCATION CENTER-ANN ARBOR", "CITY": "ANN ARBOR", "DORM_CAP": -999 }, "geometry": { "type": "Point", "coordinates": [ -83.667045, 42.253094 ] } },
{ "type": "Feature", "properties": { "NAME": "TAYLORTOWN SCHOOL OF BEAUTY INC", "CITY": "TAYLOR", "DORM_CAP": -999 }, "geometry": { "type": "Point", "coordinates": [ -83.258587, 42.254337 ] } },
{ "type": "Feature", "properties": { "NAME": "ROSS MEDICAL EDUCATION CENTER-ROOSEVELT PARK", "CITY": "ROOSEVELT PARK", "DORM_CAP": -999 }, "geometry": { "type": "Point", "coordinates": [ -86.266824, 43.19252 ] } },
{ "type": "Feature", "properties": { "NAME": "ROSS MEDICAL EDUCATION CENTER-KENTWOOD", "CITY": "KENTWOOD", "DORM_CAP": -999 }, "geometry": { "type": "Point", "coordinates": [ -85.605379, 42.880955 ] } },
{ "type": "Feature", "properties": { "NAME": "ITT TECHNICAL INSTITUTE-CANTON", "CITY": "CANTON", "DORM_CAP": -999 }, "geometry": { "type": "Point", "coordinates": [ -83.44678, 42.293021 ] } },
{ "type": "Feature", "properties": { "NAME": "IRENE'S MYOMASSOLOGY INSTITUTE", "CITY": "SOUTHFIELD", "DORM_CAP": -999 }, "geometry": { "type": "Point", "coordinates": [ -83.287169, 42.480113 ] } },
{ "type": "Feature", "properties": { "NAME": "ITT TECHNICAL INSTITUTE-SWARTZ CREEK", "CITY": "SWARTZ CREEK", "DORM_CAP": -999 }, "geometry": { "type": "Point", "coordinates": [ -83.801977, 42.96569 ] } },
{ "type": "Feature", "properties": { "NAME": "IN SESSION ARTS OF COSMETOLOGY BEAUTY SCHOOL", "CITY": "SAGINAW", "DORM_CAP": -999 }, "geometry": { "type": "Point", "coordinates": [ -84.055877, 43.416222 ] } },
{ "type": "Feature", "properties": { "NAME": "PAUL MITCHELL THE SCHOOL-GREAT LAKES", "CITY": "PORT HURON", "DORM_CAP": -999 }, "geometry": { "type": "Point", "coordinates": [ -82.45923, 42.976351 ] } },
{ "type": "Feature", "properties": { "NAME": "LAKEWOOD SCHOOL OF THERAPEUTIC MASSAGE", "CITY": "PORT HURON", "DORM_CAP": -999 }, "geometry": { "type": "Point", "coordinates": [ -82.425648, 42.972344 ] } },
{ "type": "Feature", "properties": { "NAME": "ROSS MEDICAL EDUCATION CENTER-NEW BALTIMORE", "CITY": "NEW BALTIMORE", "DORM_CAP": -999 }, "geometry": { "type": "Point", "coordinates": [ -82.751187, 42.676866 ] } },
{ "type": "Feature", "properties": { "NAME": "CAREER QUEST LEARNING CENTERS-JACKSON", "CITY": "JACKSON", "DORM_CAP": -999 }, "geometry": { "type": "Point", "coordinates": [ -84.402591, 42.246771 ] } },
{ "type": "Feature", "properties": { "NAME": "HILLSDALE BEAUTY COLLEGE", "CITY": "HILLSDALE", "DORM_CAP": -999 }, "geometry": { "type": "Point", "coordinates": [ -84.631439, 41.91873 ] } },
{ "type": "Feature", "properties": { "NAME": "BAYSHIRE ACADEMY OF BEAUTY CRAFT INC", "CITY": "BAY CITY", "DORM_CAP": -999 }, "geometry": { "type": "Point", "coordinates": [ -83.888814, 43.599723 ] } },
{ "type": "Feature", "properties": { "NAME": "FERRIS STATE UNIVERSITY", "CITY": "BIG RAPIDS", "DORM_CAP": 3275 }, "geometry": { "type": "Point", "coordinates": [ -85.481737, 43.687632 ] } },
{ "type": "Feature", "properties": { "NAME": "KETTERING UNIVERSITY", "CITY": "FLINT", "DORM_CAP": 437 }, "geometry": { "type": "Point", "coordinates": [ -83.713249, 43.013493 ] } },
{ "type": "Feature", "properties": { "NAME": "MICHIGAN TECHNOLOGICAL UNIVERSITY", "CITY": "HOUGHTON", "DORM_CAP": 3175 }, "geometry": { "type": "Point", "coordinates": [ -88.546403, 47.1183 ] } },
{ "type": "Feature", "properties": { "NAME": "MONTCALM COMMUNITY COLLEGE", "CITY": "SIDNEY", "DORM_CAP": -999 }, "geometry": { "type": "Point", "coordinates": [ -85.09967, 43.252147 ] } },
{ "type": "Feature", "properties": { "NAME": "MUSKEGON COMMUNITY COLLEGE", "CITY": "MUSKEGON", "DORM_CAP": -999 }, "geometry": { "type": "Point", "coordinates": [ -86.196384, 43.250329 ] } },
{ "type": "Feature", "properties": { "NAME": "NORTHERN MICHIGAN UNIVERSITY", "CITY": "MARQUETTE", "DORM_CAP": 3021 }, "geometry": { "type": "Point", "coordinates": [ -87.403857, 46.558037 ] } },
{ "type": "Feature", "properties": { "NAME": "NORTHWOOD UNIVERSITY", "CITY": "MIDLAND", "DORM_CAP": 772 }, "geometry": { "type": "Point", "coordinates": [ -84.276276, 43.628996 ] } },
{ "type": "Feature", "properties": { "NAME": "PORT HURON COSMETOLOGY COLLEGE", "CITY": "WATERFORD", "DORM_CAP": -999 }, "geometry": { "type": "Point", "coordinates": [ -83.398624, 42.700677 ] } },
{ "type": "Feature", "properties": { "NAME": "ROSS MEDICAL EDUCATION CENTER-FLINT", "CITY": "FLINT", "DORM_CAP": -999 }, "geometry": { "type": "Point", "coordinates": [ -83.751737, 42.986208 ] } },
{ "type": "Feature", "properties": { "NAME": "SPRING ARBOR UNIVERSITY", "CITY": "SPRING ARBOR", "DORM_CAP": 1189 }, "geometry": { "type": "Point", "coordinates": [ -84.551918, 42.206233 ] } },
{ "type": "Feature", "properties": { "NAME": "FINLANDIA UNIVERSITY", "CITY": "HANCOCK", "DORM_CAP": 212 }, "geometry": { "type": "Point", "coordinates": [ -88.589113, 47.126808 ] } },
{ "type": "Feature", "properties": { "NAME": "BAY MILLS COMMUNITY COLLEGE", "CITY": "BRIMLEY", "DORM_CAP": -999 }, "geometry": { "type": "Point", "coordinates": [ -84.606952, 46.454507 ] } },
{ "type": "Feature", "properties": { "NAME": "NORTHWESTERN TECHNOLOGICAL INSTITUTE", "CITY": "SOUTHFIELD", "DORM_CAP": -999 }, "geometry": { "type": "Point", "coordinates": [ -83.238361, 42.46927 ] } },
{ "type": "Feature", "properties": { "NAME": "CARNEGIE INSTITUTE", "CITY": "TROY", "DORM_CAP": -999 }, "geometry": { "type": "Point", "coordinates": [ -83.118801, 42.53889 ] } },
{ "type": "Feature", "properties": { "NAME": "DAVID PRESSLEY SCHOOL OF COSMETOLOGY", "CITY": "ROYAL OAK", "DORM_CAP": -999 }, "geometry": { "type": "Point", "coordinates": [ -83.146008, 42.479729 ] } },
{ "type": "Feature", "properties": { "NAME": "DORSEY BUSINESS SCHOOLS-MADISON HEIGHTS", "CITY": "MADISON HEIGHTS", "DORM_CAP": -999 }, "geometry": { "type": "Point", "coordinates": [ -83.111155, 42.519182 ] } },
{ "type": "Feature", "properties": { "NAME": "GLEN OAKS COMMUNITY COLLEGE", "CITY": "CENTREVILLE", "DORM_CAP": 108 }, "geometry": { "type": "Point", "coordinates": [ -85.496929, 41.892504 ] } },
{ "type": "Feature", "properties": { "NAME": "SPECS HOWARD SCHOOL OF MEDIA ARTS", "CITY": "SOUTHFIELD", "DORM_CAP": -999 }, "geometry": { "type": "Point", "coordinates": [ -83.239309, 42.459245 ] } },
{ "type": "Feature", "properties": { "NAME": "MICHIGAN COLLEGE OF BEAUTY-TROY", "CITY": "TROY", "DORM_CAP": -999 }, "geometry": { "type": "Point", "coordinates": [ -83.12734, 42.570337 ] } },
{ "type": "Feature", "properties": { "NAME": "BAKER COLLEGE", "CITY": "FLINT", "DORM_CAP": 715 }, "geometry": { "type": "Point", "coordinates": [ -83.694679, 42.974764 ] } },
{ "type": "Feature", "properties": { "NAME": "BAY DE NOC COMMUNITY COLLEGE", "CITY": "ESCANABA", "DORM_CAP": 98 }, "geometry": { "type": "Point", "coordinates": [ -87.085645, 45.771808 ] } },
{ "type": "Feature", "properties": { "NAME": "SHARPS ACADEMY OF HAIR STYLING", "CITY": "GRAND BLANC", "DORM_CAP": -999 }, "geometry": { "type": "Point", "coordinates": [ -83.624526, 42.912036 ] } },
{ "type": "Feature", "properties": { "NAME": "ALPENA COMMUNITY COLLEGE", "CITY": "ALPENA", "DORM_CAP": 64 }, "geometry": { "type": "Point", "coordinates": [ -83.445069, 45.081647 ] } },
{ "type": "Feature", "properties": { "NAME": "KELLOGG COMMUNITY COLLEGE", "CITY": "BATTLE CREEK", "DORM_CAP": -999 }, "geometry": { "type": "Point", "coordinates": [ -85.177329, 42.335638 ] } },
{ "type": "Feature", "properties": { "NAME": "LAKE MICHIGAN COLLEGE", "CITY": "BENTON HARBOR", "DORM_CAP": 188 }, "geometry": { "type": "Point", "coordinates": [ -86.393445, 42.097276 ] } },
{ "type": "Feature", "properties": { "NAME": "CADILLAC INSTITUTE OF COSMETOLOGY", "CITY": "CADILLAC", "DORM_CAP": -999 }, "geometry": { "type": "Point", "coordinates": [ -85.400735, 44.251426 ] } },
{ "type": "Feature", "properties": { "NAME": "MID MICHIGAN COMMUNITY COLLEGE", "CITY": "HARRISON", "DORM_CAP": -999 }, "geometry": { "type": "Point", "coordinates": [ -84.763715, 43.969586 ] } },
{ "type": "Feature", "properties": { "NAME": "HILLSDALE COLLEGE", "CITY": "HILLSDALE", "DORM_CAP": 1068 }, "geometry": { "type": "Point", "coordinates": [ -84.634153, 41.931683 ] } },
{ "type": "Feature", "properties": { "NAME": "PAUL MITCHELL THE SCHOOL-GRAND RAPIDS", "CITY": "KENTWOOD", "DORM_CAP": -999 }, "geometry": { "type": "Point", "coordinates": [ -85.596563, 42.910637 ] } },
{ "type": "Feature", "properties": { "NAME": "DORSEY BUSINESS SCHOOLS-DEARBORN", "CITY": "DETROIT", "DORM_CAP": -999 }, "geometry": { "type": "Point", "coordinates": [ -83.219358, 42.330595 ] } },
{ "type": "Feature", "properties": { "NAME": "PAUL MITCHELL THE SCHOOL-FARMINGTON HILLS", "CITY": "FARMINGTON HILLS", "DORM_CAP": -999 }, "geometry": { "type": "Point", "coordinates": [ -83.357682, 42.498205 ] } },
{ "type": "Feature", "properties": { "NAME": "PAUL MITCHELL THE SCHOOL-LANSING", "CITY": "LANSING", "DORM_CAP": -999 }, "geometry": { "type": "Point", "coordinates": [ -84.508659, 42.734455 ] } },
{ "type": "Feature", "properties": { "NAME": "UNIVERSITY OF PHOENIX-MICHIGAN", "CITY": "SOUTHFIELD", "DORM_CAP": -999 }, "geometry": { "type": "Point", "coordinates": [ -83.242454, 42.482219 ] } },
{ "type": "Feature", "properties": { "NAME": "PROTEGE ACADEMY", "CITY": "EAST LANSING", "DORM_CAP": -999 }, "geometry": { "type": "Point", "coordinates": [ -84.485507, 42.772477 ] } },
{ "type": "Feature", "properties": { "NAME": "SCHOOL OF MISSIONARY AVIATION TECHNOLOGY", "CITY": "IONIA", "DORM_CAP": -999 }, "geometry": { "type": "Point", "coordinates": [ -85.072248, 42.941367 ] } },
{ "type": "Feature", "properties": { "NAME": "DORSEY BUSINESS SCHOOLS-LANSING", "CITY": "LANSING", "DORM_CAP": -999 }, "geometry": { "type": "Point", "coordinates": [ -84.544306, 42.666644 ] } },
{ "type": "Feature", "properties": { "NAME": "MICHIGAN CAREER AND TECHNICAL INSTITUTE", "CITY": "PLAINWELL", "DORM_CAP": 350 }, "geometry": { "type": "Point", "coordinates": [ -85.520711, 42.508058 ] } },
{ "type": "Feature", "properties": { "NAME": "FRENCH ACADEMY OF COSMETOLOGY", "CITY": "SPRING LAKE", "DORM_CAP": -999 }, "geometry": { "type": "Point", "coordinates": [ -86.198004, 43.075898 ] } },
{ "type": "Feature", "properties": { "NAME": "CHAMBERLAIN UNIVERSITY-MICHIGAN", "CITY": "TROY", "DORM_CAP": -999 }, "geometry": { "type": "Point", "coordinates": [ -83.150502, 42.557231 ] } },
{ "type": "Feature", "properties": { "NAME": "PRINCESS BEAUTY SCHOOL", "CITY": "DEARBORN HEIGHTS", "DORM_CAP": -999 }, "geometry": { "type": "Point", "coordinates": [ -83.293116, 42.326043 ] } },
{ "type": "Feature", "properties": { "NAME": "PROTEGE ACADEMY", "CITY": "MT. PLEASANT", "DORM_CAP": -999 }, "geometry": { "type": "Point", "coordinates": [ -84.751107, 43.611336 ] } },
{ "type": "Feature", "properties": { "NAME": "MOTT COMMUNITY COLLEGE", "CITY": "FLINT", "DORM_CAP": -999 }, "geometry": { "type": "Point", "coordinates": [ -83.67243, 43.019941 ] } },
{ "type": "Feature", "properties": { "NAME": "DELTA COLLEGE", "CITY": "UNIVERSITY CENTER", "DORM_CAP": -999 }, "geometry": { "type": "Point", "coordinates": [ -83.985943, 43.559491 ] } },
{ "type": "Feature", "properties": { "NAME": "GRAND RAPIDS COMMUNITY COLLEGE", "CITY": "GRAND RAPIDS", "DORM_CAP": -999 }, "geometry": { "type": "Point", "coordinates": [ -85.666571, 42.966408 ] } },
{ "type": "Feature", "properties": { "NAME": "HENRY FORD COLLEGE", "CITY": "DEARBORN", "DORM_CAP": -999 }, "geometry": { "type": "Point", "coordinates": [ -83.238409, 42.324577 ] } },
{ "type": "Feature", "properties": { "NAME": "MONROE COUNTY COMMUNITY COLLEGE", "CITY": "MONROE", "DORM_CAP": -999 }, "geometry": { "type": "Point", "coordinates": [ -83.470274, 41.91617 ] } },
{ "type": "Feature", "properties": { "NAME": "INTERNATIONAL COSMETOLOGY ACADEMY", "CITY": "GRAND RAPIDS", "DORM_CAP": -999 }, "geometry": { "type": "Point", "coordinates": [ -85.643208, 42.912191 ] } },
{ "type": "Feature", "properties": { "NAME": "NORTH CENTRAL MICHIGAN COLLEGE", "CITY": "PETOSKEY", "DORM_CAP": 134 }, "geometry": { "type": "Point", "coordinates": [ -84.952698, 45.360524 ] } },
{ "type": "Feature", "properties": { "NAME": "SCHOOLCRAFT COLLEGE", "CITY": "LIVONIA", "DORM_CAP": -999 }, "geometry": { "type": "Point", "coordinates": [ -83.430958, 42.419279 ] } },
{ "type": "Feature", "properties": { "NAME": "PAUL MITCHELL THE SCHOOL-MICHIGAN", "CITY": "STERLING HEIGHTS", "DORM_CAP": -999 }, "geometry": { "type": "Point", "coordinates": [ -83.028641, 42.593991 ] } },
{ "type": "Feature", "properties": { "NAME": "FOCUS-HOPE INFORMATION TECHNOLOGIES CENTER", "CITY": "DETROIT", "DORM_CAP": -999 }, "geometry": { "type": "Point", "coordinates": [ -83.123793, 42.399727 ] } },
{ "type": "Feature", "properties": { "NAME": "ROSS MEDICAL EDUCATION CENTER-PORTAGE", "CITY": "PORTAGE", "DORM_CAP": -999 }, "geometry": { "type": "Point", "coordinates": [ -85.588652, 42.226492 ] } },
{ "type": "Feature", "properties": { "NAME": "SOUTH UNIVERSITY-NOVI", "CITY": "NOVI", "DORM_CAP": -999 }, "geometry": { "type": "Point", "coordinates": [ -83.457357, 42.495505 ] } },
{ "type": "Feature", "properties": { "NAME": "KEWEENAW BAY OJIBWA COMMUNITY COLLEGE", "CITY": "BARAGA", "DORM_CAP": -999 }, "geometry": { "type": "Point", "coordinates": [ -88.507909, 46.780629 ] } },
{ "type": "Feature", "properties": { "NAME": "CALVIN THEOLOGICAL SEMINARY", "CITY": "GRAND RAPIDS", "DORM_CAP": 189 }, "geometry": { "type": "Point", "coordinates": [ -85.587354, 42.92992 ] } },
{ "type": "Feature", "properties": { "NAME": "MICHIGAN SCHOOL OF PROFESSIONAL PSYCHOLOGY", "CITY": "FARMINGTON HILLS", "DORM_CAP": -999 }, "geometry": { "type": "Point", "coordinates": [ -83.359575, 42.491427 ] } },
{ "type": "Feature", "properties": { "NAME": "CENTRAL MICHIGAN UNIVERSITY", "CITY": "MOUNT PLEASANT", "DORM_CAP": 6327 }, "geometry": { "type": "Point", "coordinates": [ -84.774813, 43.586742 ] } },
{ "type": "Feature", "properties": { "NAME": "EMPIRE BEAUTY SCHOOL-MICHIGAN", "CITY": "GRAND RAPIDS", "DORM_CAP": -999 }, "geometry": { "type": "Point", "coordinates": [ -85.69111, 43.02859 ] } },
{ "type": "Feature", "properties": { "NAME": "CRANBROOK ACADEMY OF ART", "CITY": "BLOOMFIELD HILLS", "DORM_CAP": 80 }, "geometry": { "type": "Point", "coordinates": [ -83.25124, 42.568716 ] } },
{ "type": "Feature", "properties": { "NAME": "COLLEGE FOR CREATIVE STUDIES", "CITY": "DETROIT", "DORM_CAP": 554 }, "geometry": { "type": "Point", "coordinates": [ -83.062352, 42.361839 ] } },
{ "type": "Feature", "properties": { "NAME": "DAVENPORT UNIVERSITY", "CITY": "GRAND RAPIDS", "DORM_CAP": 852 }, "geometry": { "type": "Point", "coordinates": [ -85.529655, 42.849713 ] } },
{ "type": "Feature", "properties": { "NAME": "MICHIGAN STATE UNIVERSITY-COLLEGE OF LAW", "CITY": "EAST LANSING", "DORM_CAP": -999 }, "geometry": { "type": "Point", "coordinates": [ -84.473514, 42.725731 ] } },
{ "type": "Feature", "properties": { "NAME": "KALAMAZOO COLLEGE", "CITY": "KALAMAZOO", "DORM_CAP": 881 }, "geometry": { "type": "Point", "coordinates": [ -85.599528, 42.290611 ] } },
{ "type": "Feature", "properties": { "NAME": "KIRTLAND COMMUNITY COLLEGE", "CITY": "ROSCOMMON", "DORM_CAP": -999 }, "geometry": { "type": "Point", "coordinates": [ -84.413388, 44.490753 ] } },
{ "type": "Feature", "properties": { "NAME": "LAWRENCE TECHNOLOGICAL UNIVERSITY", "CITY": "SOUTHFIELD", "DORM_CAP": 813 }, "geometry": { "type": "Point", "coordinates": [ -83.25003, 42.474072 ] } },
{ "type": "Feature", "properties": { "NAME": "MARYGROVE COLLEGE", "CITY": "DETROIT", "DORM_CAP": 185 }, "geometry": { "type": "Point", "coordinates": [ -83.154109, 42.414415 ] } },
{ "type": "Feature", "properties": { "NAME": "ROCHESTER COLLEGE", "CITY": "ROCHESTER HILLS", "DORM_CAP": 338 }, "geometry": { "type": "Point", "coordinates": [ -83.144959, 42.667521 ] } },
{ "type": "Feature", "properties": { "NAME": "MICHIGAN BARBER SCHOOL INC", "CITY": "DETROIT", "DORM_CAP": -999 }, "geometry": { "type": "Point", "coordinates": [ -83.12898, 42.364892 ] } },
{ "type": "Feature", "properties": { "NAME": "PAUL MITCHELL THE SCHOOL-ESCANABA", "CITY": "ESCANABA", "DORM_CAP": -999 }, "geometry": { "type": "Point", "coordinates": [ -87.069482, 45.766848 ] } },
{ "type": "Feature", "properties": { "NAME": "OLIVET COLLEGE", "CITY": "OLIVET", "DORM_CAP": 781 }, "geometry": { "type": "Point", "coordinates": [ -84.922864, 42.440908 ] } },
{ "type": "Feature", "properties": { "NAME": "ROSS MEDICAL EDUCATION CENTER-LANSING", "CITY": "LANSING", "DORM_CAP": -999 }, "geometry": { "type": "Point", "coordinates": [ -84.605807, 42.741855 ] } },
{ "type": "Feature", "properties": { "NAME": "ROSS MEDICAL EDUCATION CENTER-MADISON HEIGHTS", "CITY": "MADISON HEIGHTS", "DORM_CAP": -999 }, "geometry": { "type": "Point", "coordinates": [ -83.107692, 42.508189 ] } },
{ "type": "Feature", "properties": { "NAME": "SACRED HEART MAJOR SEMINARY", "CITY": "DETROIT", "DORM_CAP": 120 }, "geometry": { "type": "Point", "coordinates": [ -83.111682, 42.375248 ] } },
{ "type": "Feature", "properties": { "NAME": "SAGINAW VALLEY STATE UNIVERSITY", "CITY": "UNIVERSITY CENTER", "DORM_CAP": 2426 }, "geometry": { "type": "Point", "coordinates": [ -83.962708, 43.513978 ] } },
{ "type": "Feature", "properties": { "NAME": "P&A SCHOLARS BEAUTY SCHOOL", "CITY": "DETROIT", "DORM_CAP": -999 }, "geometry": { "type": "Point", "coordinates": [ -83.157878, 42.376091 ] } },
{ "type": "Feature", "properties": { "NAME": "DORSEY BUSINESS SCHOOLS-WAYNE", "CITY": "WAYNE", "DORM_CAP": -999 }, "geometry": { "type": "Point", "coordinates": [ -83.381835, 42.280701 ] } },
{ "type": "Feature", "properties": { "NAME": "ECUMENICAL THEOLOGICAL SEMINARY", "CITY": "DETROIT", "DORM_CAP": -999 }, "geometry": { "type": "Point", "coordinates": [ -83.055266, 42.344129 ] } },
{ "type": "Feature", "properties": { "NAME": "ROSS MEDICAL EDUCATION CENTER-PORT HURON", "CITY": "PORT HURON", "DORM_CAP": -999 }, "geometry": { "type": "Point", "coordinates": [ -82.447609, 43.015077 ] } },
{ "type": "Feature", "properties": { "NAME": "ROSS MEDICAL EDUCATION CENTER-TAYLOR", "CITY": "TAYLOR", "DORM_CAP": -999 }, "geometry": { "type": "Point", "coordinates": [ -83.250307, 42.194933 ] } },
{ "type": "Feature", "properties": { "NAME": "SALON ACADEMY", "CITY": "COLDWATER", "DORM_CAP": -999 }, "geometry": { "type": "Point", "coordinates": [ -84.999503, 41.954952 ] } },
{ "type": "Feature", "properties": { "NAME": "HOUGHTON LAKE INSTITUTE OF COSMETOLOGY", "CITY": "HOUGHTON LAKE", "DORM_CAP": -999 }, "geometry": { "type": "Point", "coordinates": [ -84.760331, 44.309409 ] } },
{ "type": "Feature", "properties": { "NAME": "NUVO COLLEGE OF COSMETOLOGY", "CITY": "NORTON SHORES", "DORM_CAP": -999 }, "geometry": { "type": "Point", "coordinates": [ -86.266363, 43.190285 ] } },
{ "type": "Feature", "properties": { "NAME": "GREAT LAKES CHRISTIAN COLLEGE", "CITY": "LANSING", "DORM_CAP": 151 }, "geometry": { "type": "Point", "coordinates": [ -84.638714, 42.754249 ] } },
{ "type": "Feature", "properties": { "NAME": "LAKE SUPERIOR STATE UNIVERSITY", "CITY": "SAULT STE MARIE", "DORM_CAP": 998 }, "geometry": { "type": "Point", "coordinates": [ -84.364548, 46.492664 ] } },
{ "type": "Feature", "properties": { "NAME": "ST CLAIR COUNTY COMMUNITY COLLEGE", "CITY": "PORT HURON", "DORM_CAP": -999 }, "geometry": { "type": "Point", "coordinates": [ -82.428717, 42.979494 ] } },
{ "type": "Feature", "properties": { "NAME": "ROSS MEDICAL EDUCATION CENTER-SAGINAW", "CITY": "SAGINAW", "DORM_CAP": -999 }, "geometry": { "type": "Point", "coordinates": [ -83.967855, 43.469449 ] } },
{ "type": "Feature", "properties": { "NAME": "CAREER QUEST LEARNING CENTERS-LANSING", "CITY": "LANSING", "DORM_CAP": -999 }, "geometry": { "type": "Point", "coordinates": [ -84.53728, 42.699106 ] } },
{ "type": "Feature", "properties": { "NAME": "M J MURPHY BEAUTY COLLEGE OF MOUNT PLEASANT", "CITY": "MOUNT PLEASANT", "DORM_CAP": -999 }, "geometry": { "type": "Point", "coordinates": [ -84.777927, 43.60429 ] } },
{ "type": "Feature", "properties": { "NAME": "SAGINAW CHIPPEWA TRIBAL COLLEGE", "CITY": "MOUNT PLEASANT", "DORM_CAP": -999 }, "geometry": { "type": "Point", "coordinates": [ -84.73259, 43.607149 ] } },
{ "type": "Feature", "properties": { "NAME": "DORSEY BUSINESS SCHOOLS-FARMINGTON HILLS", "CITY": "FARMINGTON HILLS", "DORM_CAP": -999 }, "geometry": { "type": "Point", "coordinates": [ -83.37551, 42.496213 ] } },
{ "type": "Feature", "properties": { "NAME": "DORSEY BUSINESS SCHOOLS-ROSEVILLE CULINARY ACADEMY", "CITY": "ROSEVILLE", "DORM_CAP": -999 }, "geometry": { "type": "Point", "coordinates": [ -82.91033, 42.536298 ] } },
{ "type": "Feature", "properties": { "NAME": "BRIGHTON INSTITUTE OF COSMETOLOGY", "CITY": "BRIGHTON", "DORM_CAP": -999 }, "geometry": { "type": "Point", "coordinates": [ -83.744649, 42.518896 ] } },
{ "type": "Feature", "properties": { "NAME": "WAYNE COUNTY COMMUNITY COLLEGE DISTRICT", "CITY": "DETROIT", "DORM_CAP": -999 }, "geometry": { "type": "Point", "coordinates": [ -83.055527, 42.326515 ] } },
{ "type": "Feature", "properties": { "NAME": "CALVIN COLLEGE", "CITY": "GRAND RAPIDS", "DORM_CAP": 2534 }, "geometry": { "type": "Point", "coordinates": [ -85.587548, 42.929916 ] } },
{ "type": "Feature", "properties": { "NAME": "EASTERN MICHIGAN UNIVERSITY", "CITY": "YPSILANTI", "DORM_CAP": 4350 }, "geometry": { "type": "Point", "coordinates": [ -83.625156, 42.250277 ] } },
{ "type": "Feature", "properties": { "NAME": "GOGEBIC COMMUNITY COLLEGE", "CITY": "IRONWOOD", "DORM_CAP": 96 }, "geometry": { "type": "Point", "coordinates": [ -90.165592, 46.471893 ] } },
{ "type": "Feature", "properties": { "NAME": "ITT TECHNICAL INSTITUTE-WYOMING", "CITY": "WYOMING", "DORM_CAP": -999 }, "geometry": { "type": "Point", "coordinates": [ -85.714524, 42.854784 ] } },
{ "type": "Feature", "properties": { "NAME": "MICHIGAN STATE UNIVERSITY", "CITY": "EAST LANSING", "DORM_CAP": 18000 }, "geometry": { "type": "Point", "coordinates": [ -84.473639, 42.72476 ] } },
{ "type": "Feature", "properties": { "NAME": "KUYPER COLLEGE", "CITY": "GRAND RAPIDS", "DORM_CAP": 162 }, "geometry": { "type": "Point", "coordinates": [ -85.592657, 43.02195 ] } },
{ "type": "Feature", "properties": { "NAME": "GRAND VALLEY STATE UNIVERSITY", "CITY": "ALLENDALE", "DORM_CAP": 6012 }, "geometry": { "type": "Point", "coordinates": [ -85.887519, 42.965208 ] } },
{ "type": "Feature", "properties": { "NAME": "JACKSON COLLEGE", "CITY": "JACKSON", "DORM_CAP": 392 }, "geometry": { "type": "Point", "coordinates": [ -84.403942, 42.16483 ] } },
{ "type": "Feature", "properties": { "NAME": "WESTERN MICHIGAN UNIVERSITY", "CITY": "KALAMAZOO", "DORM_CAP": 6746 }, "geometry": { "type": "Point", "coordinates": [ -85.613482, 42.280799 ] } },
{ "type": "Feature", "properties": { "NAME": "KALAMAZOO VALLEY COMMUNITY COLLEGE", "CITY": "KALAMAZOO", "DORM_CAP": -999 }, "geometry": { "type": "Point", "coordinates": [ -85.682144, 42.225948 ] } },
{ "type": "Feature", "properties": { "NAME": "NORTHWESTERN MICHIGAN COLLEGE", "CITY": "TRAVERSE CITY", "DORM_CAP": 507 }, "geometry": { "type": "Point", "coordinates": [ -85.585354, 44.765371 ] } },
{ "type": "Feature", "properties": { "NAME": "SOUTHWESTERN MICHIGAN COLLEGE", "CITY": "DOWAGIAC", "DORM_CAP": 390 }, "geometry": { "type": "Point", "coordinates": [ -86.082715, 41.965095 ] } }
]
}
