{
"type": "FeatureCollection",
"name": "ny_hospitals",
"crs": { "type": "name", "properties": { "name": "urn:ogc:def:crs:OGC:1.3:CRS84" } },
"features": [
{ "type": "Feature", "properties": { "NAME": "VASSAR BROTHERS MEDICAL CENTER", "CITY": "POUGHKEEPSIE", "BEDS": 365 }, "geometry": { "type": "Point", "coordinates": [ -73.93579, 41.69386 ] } },
{ "type": "Feature", "properties": { "NAME": "ERIE COUNTY MEDICAL CENTER", "CITY": "BUFFALO", "BEDS": 550 }, "geometry": { "type": "Point", "coordinates": [ -78.83115, 42.92508 ] } },
{ "type": "Feature", "properties": { "NAME": "STRONG MEMORIAL HOSPITAL", "CITY": "ROCHESTER", "BEDS": 830 }, "geometry": { "type": "Point", "coordinates": [ -77.62426, 43.12281 ] } },
{ "type": "Feature", "properties": { "NAME": "NORTH SHORE UNIVERSITY HOSPITAL", "CITY": "MANHASSET", "BEDS": 764 }, "geometry": { "type": "Point", "coordinates": [ -73.70161, 40.77764 ] } },
{ "type": "Feature", "properties": { "NAME": "NASSAU UNIVERSITY MEDICAL CENTER", "CITY": "EAST MEADOW", "BEDS": 530 }, "geometry": { "type": "Point", "coordinates": [ -73.55374, 40.72626 ] } },
{ "type": "Feature", "properties": { "NAME": "SOUTH NASSAU COMMUNITIES HOSPITAL", "CITY": "OCEANSIDE", "BEDS": 455 }, "geometry": { "type": "Point", "coordinates": [ -73.63084, 40.651 ] } },
{ "type": "Feature", "properties": { "NAME": "UPSTATE UNIVERSITY HOSPITAL - DOWNTOWN CAMPUS", "CITY": "SYRACUSE", "BEDS": 409 }, "geometry": { "type": "Point", "coordinates": [ -76.13983, 43.0419 ] } },
{ "type": "Feature", "properties": { "NAME": "ST. LUKE'S CORNWALL HOSPITAL - NEWBURGH CAMPUS", "CITY": "NEWBURGH", "BEDS": 242 }, "geometry": { "type": "Point", "coordinates": [ -74.01457, 41.50342 ] } },
{ "type": "Feature", "properties": { "NAME": "ORANGE REGIONAL MEDICAL CENTER", "CITY": "MIDDLETOWN", "BEDS": 353 }, "geometry": { "type": "Point", "coordinates": [ -74.36831, 41.44191 ] } },
{ "type": "Feature", "properties": { "NAME": "SAMARITAN HOSPITAL", "CITY": "TROY", "BEDS": 212 }, "geometry": { "type": "Point", "coordinates": [ -73.67216, 42.73329 ] } },
{ "type": "Feature", "properties": { "NAME": "NYACK HOSPITAL", "CITY": "NYACK", "BEDS": 375 }, "geometry": { "type": "Point", "coordinates": [ -73.92602, 41.09621 ] } },
{ "type": "Feature", "properties": { "NAME": "CANTON-POTSDAM HOSPITAL", "CITY": "POTSDAM", "BEDS": 94 }, "geometry": { "type": "Point", "coordinates": [ -74.98212, 44.67651 ] } },
{ "type": "Feature", "properties": { "NAME": "SARATOGA HOSPITAL", "CITY": "SARATOGA", "BEDS": 171 }, "geometry": { "type": "Point", "coordinates": [ -73.79678, 43.08588 ] } },
{ "type": "Feature", "properties": { "NAME": "ST. JAMES MERCY HEALTH SYSTEM", "CITY": "HORNELL", "BEDS": 15 }, "geometry": { "type": "Point", "coordinates": [ -77.66061, 42.31387 ] } },
{ "type": "Feature", "properties": { "NAME": "BROOKHAVEN MEMORIAL HOSPITAL MEDICAL CENTER", "CITY": "PATCHOGUE", "BEDS": 306 }, "geometry": { "type": "Point", "coordinates": [ -72.97714, 40.78006 ] } },
{ "type": "Feature", "properties": { "NAME": "SOUTHAMPTON HOSPITAL", "CITY": "SOUTHAMPTON", "BEDS": 125 }, "geometry": { "type": "Point", "coordinates": [ -72.37994, 40.88506 ] } },
{ "type": "Feature", "properties": { "NAME": "EASTERN LONG ISLAND HOSPITAL", "CITY": "GREENPORT", "BEDS": 90 }, "geometry": { "type": "Point", "coordinates": [ -72.36113, 41.11036 ] } },
{ "type": "Feature", "properties": { "NAME": "HUNTINGTON HOSPITAL", "CITY": "HUNTINGTON", "BEDS": 408 }, "geometry": { "type": "Point", "coordinates": [ -73.4162, 40.87933 ] } },
{ "type": "Feature", "properties": { "NAME": "SOUTHSIDE HOSPITAL", "CITY": "BAY SHORE", "BEDS": 321 }, "geometry": { "type": "Point", "coordinates": [ -73.24116, 40.72596 ] } },
{ "type": "Feature", "properties": { "NAME": "GOOD SAMARITAN HOSPITAL - WEST ISLIP", "CITY": "WEST ISLIP", "BEDS": 437 }, "geometry": { "type": "Point", "coordinates": [ -73.29439, 40.69388 ] } },
{ "type": "Feature", "properties": { "NAME": "HEALTHALLIANCE HOSPITAL - BROADWAY CAMPUS", "CITY": "KINGSTON", "BEDS": 150 }, "geometry": { "type": "Point", "coordinates": [ -73.99484, 41.92666 ] } },
{ "type": "Feature", "properties": { "NAME": "ELLENVILLE REGIONAL HOSPITAL", "CITY": "ELLENVILLE", "BEDS": 25 }, "geometry": { "type": "Point", "coordinates": [ -74.37903, 41.73263 ] } },
{ "type": "Feature", "properties": { "NAME": "NEWARK-WAYNE COMMUNITY HOSPITAL", "CITY": "NEWARK", "BEDS": 120 }, "geometry": { "type": "Point", "coordinates": [ -77.10167, 43.0605 ] } },
{ "type": "Feature", "properties": { "NAME": "ST. JOHN'S RIVERSIDE HOSPITAL - DOBBS FERRY", "CITY": "DOBBS FERRY", "BEDS": 12 }, "geometry": { "type": "Point", "coordinates": [ -73.86192, 41.01439 ] } },
{ "type": "Feature", "properties": { "NAME": "PHELPS MEMORIAL HOSPITAL CENTER", "CITY": "SLEEPY HOLLOW", "BEDS": 238 }, "geometry": { "type": "Point", "coordinates": [ -73.86309, 41.10901 ] } },
{ "type": "Feature", "properties": { "NAME": "BLYTHEDALE CHILDREN'S HOSPITAL", "CITY": "VALHALLA", "BEDS": 86 }, "geometry": { "type": "Point", "coordinates": [ -73.79997, 41.07485 ] } },
{ "type": "Feature", "properties": { "NAME": "WESTCHESTER MEDICAL CENTER", "CITY": "VALHALLA", "BEDS": 652 }, "geometry": { "type": "Point", "coordinates": [ -73.80495, 41.08609 ] } },
{ "type": "Feature", "properties": { "NAME": "JACOBI MEDICAL CENTER", "CITY": "BRONX", "BEDS": 457 }, "geometry": { "type": "Point", "coordinates": [ -73.84751, 40.8563 ] } },
{ "type": "Feature", "properties": { "NAME": "MONTEFIORE MEDICAL CENTER - MOSES DIVISION", "CITY": "BRONX", "BEDS": 779 }, "geometry": { "type": "Point", "coordinates": [ -73.87983, 40.88008 ] } },
{ "type": "Feature", "properties": { "NAME": "NORTH CENTRAL BRONX HOSPITAL", "CITY": "BRONX", "BEDS": 213 }, "geometry": { "type": "Point", "coordinates": [ -73.88106, 40.88037 ] } },
{ "type": "Feature", "properties": { "NAME": "BROOKDALE HOSPITAL MEDICAL CENTER", "CITY": "BROOKLYN", "BEDS": 530 }, "geometry": { "type": "Point", "coordinates": [ -73.91256, 40.65527 ] } },
{ "type": "Feature", "properties": { "NAME": "BROOKLYN HOSPITAL CENTER", "CITY": "BROOKLYN", "BEDS": 464 }, "geometry": { "type": "Point", "coordinates": [ -73.97788, 40.69057 ] } },
{ "type": "Feature", "properties": { "NAME": "MONTEFIORE WESTCHESTER SQUARE MEDICAL CENTER", "CITY": "BRONX", "BEDS": -999 }, "geometry": { "type": "Point", "coordinates": [ -73.84852, 40.84074 ] } },
{ "type": "Feature", "properties": { "NAME": "KINGS COUNTY HOSPITAL CENTER", "CITY": "BROOKLYN", "BEDS": 639 }, "geometry": { "type": "Point", "coordinates": [ -73.94469, 40.65662 ] } },
{ "type": "Feature", "properties": { "NAME": "CONEY ISLAND HOSPITAL", "CITY": "BROOKLYN", "BEDS": 371 }, "geometry": { "type": "Point", "coordinates": [ -73.96533, 40.58541 ] } },
{ "type": "Feature", "properties": { "NAME": "LONG ISLAND COLLEGE HOSPITAL", "CITY": "BROOKLYN", "BEDS": 506 }, "geometry": { "type": "Point", "coordinates": [ -73.99788, 40.6906 ] } },
{ "type": "Feature", "properties": { "NAME": "NYU LUTHERAN MEDICAL CENTER", "CITY": "BROOKLYN", "BEDS": 396 }, "geometry": { "type": "Point", "coordinates": [ -74.02091, 40.64656 ] } },
{ "type": "Feature", "properties": { "NAME": "NEW YORK METHODIST HOSPITAL", "CITY": "BROOKLYN", "BEDS": 591 }, "geometry": { "type": "Point", "coordinates": [ -73.97899, 40.66776 ] } },
{ "type": "Feature", "properties": { "NAME": "NYU HOSPITAL FOR JOINT DISEASES", "CITY": "NEW YORK", "BEDS": 225 }, "geometry": { "type": "Point", "coordinates": [ -73.983, 40.73443 ] } },
{ "type": "Feature", "properties": { "NAME": "NEW YORK PRESBYTERIAN MORGAN STANLEY CHILDREN'S HOSPITAL", "CITY": "NEW YORK", "BEDS": 190 }, "geometry": { "type": "Point", "coordinates": [ -73.94128, 40.83976 ] } },
{ "type": "Feature", "properties": { "NAME": "THE ADDICTION INSTITUTE OF NEW YORK", "CITY": "NEW YORK", "BEDS": -999 }, "geometry": { "type": "Point", "coordinates": [ -73.98681, 40.76941 ] } },
{ "type": "Feature", "properties": { "NAME": "ELMHURST HOSPITAL CENTER", "CITY": "ELMHURST", "BEDS": 551 }, "geometry": { "type": "Point", "coordinates": [ -73.88608, 40.74483 ] } },
{ "type": "Feature", "properties": { "NAME": "JAMAICA HOSPITAL MEDICAL CENTER", "CITY": "JAMAICA", "BEDS": 408 }, "geometry": { "type": "Point", "coordinates": [ -73.81611, 40.7001 ] } },
{ "type": "Feature", "properties": { "NAME": "NEW YORK HOSPITAL QUEENS", "CITY": "FLUSHING", "BEDS": 519 }, "geometry": { "type": "Point", "coordinates": [ -73.82542, 40.74677 ] } },
{ "type": "Feature", "properties": { "NAME": "RICHMOND UNIVERSITY MEDICAL CENTER - MAIN CAMPUS", "CITY": "STATEN ISLAND", "BEDS": 448 }, "geometry": { "type": "Point", "coordinates": [ -74.10594, 40.6359 ] } },
{ "type": "Feature", "properties": { "NAME": "STATEN ISLAND UNIVERSITY HOSPITAL - NORTH", "CITY": "STATEN ISLAND", "BEDS": 508 }, "geometry": { "type": "Point", "coordinates": [ -74.08622, 40.58498 ] } },
{ "type": "Feature", "properties": { "NAME": "BELLEVUE HOSPITAL CENTER", "CITY": "NEW YORK", "BEDS": 912 }, "geometry": { "type": "Point", "coordinates": [ -73.97538, 40.73932 ] } },
{ "type": "Feature", "properties": { "NAME": "GLEN COVE HOSPITAL", "CITY": "GLEN COVE", "BEDS": 247 }, "geometry": { "type": "Point", "coordinates": [ -73.62239, 40.871 ] } },
{ "type": "Feature", "properties": { "NAME": "MOHAWK VALLEY HEART INSTITUTE, INC", "CITY": "UTICA", "BEDS": -999 }, "geometry": { "type": "Point", "coordinates": [ -75.2666, 43.08149 ] } },
{ "type": "Feature", "properties": { "NAME": "MONTEFIORE NEW ROCHELLE HOSPITAL", "CITY": "NEW ROCHELLE", "BEDS": 23 }, "geometry": { "type": "Point", "coordinates": [ -73.78776, 40.91281 ] } },
{ "type": "Feature", "properties": { "NAME": "MOUNT SINAI BETH ISRAEL BROOKLYN", "CITY": "BROOKLYN", "BEDS": 212 }, "geometry": { "type": "Point", "coordinates": [ -73.9429, 40.61882 ] } },
{ "type": "Feature", "properties": { "NAME": "NEW YORK PRESBYTERIAN HOSPITAL - WESTCHESTER DIVISION", "CITY": "WHITE PLAINS", "BEDS": 270 }, "geometry": { "type": "Point", "coordinates": [ -73.75391, 41.02758 ] } },
{ "type": "Feature", "properties": { "NAME": "HARLEM HOSPITAL CENTER", "CITY": "NEW YORK", "BEDS": 282 }, "geometry": { "type": "Point", "coordinates": [ -73.93986, 40.81426 ] } },
{ "type": "Feature", "properties": { "NAME": "HENRY J. CARTER SPECIALTY HOSPITAL", "CITY": "NEW YORK", "BEDS": 201 }, "geometry": { "type": "Point", "coordinates": [ -73.94162, 40.80329 ] } },
{ "type": "Feature", "properties": { "NAME": "SBH HEALTH SYSTEM", "CITY": "BRONX", "BEDS": 461 }, "geometry": { "type": "Point", "coordinates": [ -73.89136, 40.85269 ] } },
{ "type": "Feature", "properties": { "NAME": "IRA DAVENPORT MEMORIAL HOSPITAL INC", "CITY": "BATH", "BEDS": 35 }, "geometry": { "type": "Point", "coordinates": [ -77.27891, 42.37433 ] } },
{ "type": "Feature", "properties": { "NAME": "ST. MARY'S HEALTHCARE - AMSTERDAM MEMORIAL CAMPUS", "CITY": "AMSTERDAM", "BEDS": 10 }, "geometry": { "type": "Point", "coordinates": [ -74.18712, 42.95907 ] } },
{ "type": "Feature", "properties": { "NAME": "THE BURDETT CARE CENTER", "CITY": "TROY", "BEDS": 15 }, "geometry": { "type": "Point", "coordinates": [ -73.67267, 42.73336 ] } },
{ "type": "Feature", "properties": { "NAME": "THE UNIVERSITY OF VERMONT HEALTH NETWORK - CHAMPLAIN VALLEY PHYSICIANS HOSPITAL", "CITY": "PLATTSBURGH", "BEDS": 300 }, "geometry": { "type": "Point", "coordinates": [ -73.46942, 44.70044 ] } },
{ "type": "Feature", "properties": { "NAME": "MONTEFIORE MEDICAL CENTER-WAKEFIELD HOSPITAL", "CITY": "BRONX", "BEDS": 325 }, "geometry": { "type": "Point", "coordinates": [ -73.86119, 40.8937 ] } },
{ "type": "Feature", "properties": { "NAME": "MOUNT SINAI ST. LUKE'S", "CITY": "NEW YORK", "BEDS": 495 }, "geometry": { "type": "Point", "coordinates": [ -73.96159, 40.80492 ] } },
{ "type": "Feature", "properties": { "NAME": "NEW YORK PRESBYTERIAN HOSPITAL - COLUMBIA PRESBYTERIAN CENTER", "CITY": "NEW YORK", "BEDS": 1007 }, "geometry": { "type": "Point", "coordinates": [ -73.94069, 40.84105 ] } },
{ "type": "Feature", "properties": { "NAME": "NEW YORK PRESBYTERIAN HOSPITAL - NEW YORK WEILL CORNELL CENTER", "CITY": "NEW YORK", "BEDS": 862 }, "geometry": { "type": "Point", "coordinates": [ -73.95433, 40.76455 ] } },
{ "type": "Feature", "properties": { "NAME": "NYULMC - COBBLE HILL", "CITY": "BROOKLYN", "BEDS": -999 }, "geometry": { "type": "Point", "coordinates": [ -73.99777, 40.68987 ] } },
{ "type": "Feature", "properties": { "NAME": "URMC STRONG WEST", "CITY": "BROCKPORT", "BEDS": -999 }, "geometry": { "type": "Point", "coordinates": [ -77.94458, 43.22161 ] } },
{ "type": "Feature", "properties": { "NAME": "WOMEN AND CHILDREN'S HOSPITAL OF BUFFALO", "CITY": "BUFFALO", "BEDS": 200 }, "geometry": { "type": "Point", "coordinates": [ -78.87521, 42.90921 ] } },
{ "type": "Feature", "properties": { "NAME": "WINTHROP-UNIVERSITY HOSPITAL", "CITY": "MINEOLA", "BEDS": 591 }, "geometry": { "type": "Point", "coordinates": [ -73.64301, 40.7407 ] } },
{ "type": "Feature", "properties": { "NAME": "WOMANS CHRISTIAN ASSOC HOSPITAL - WCA HOSP AT JONES MEMORIAL HEALTH CENTER", "CITY": "JAMESTOWN", "BEDS": 40 }, "geometry": { "type": "Point", "coordinates": [ -79.24537, 42.09117 ] } },
{ "type": "Feature", "properties": { "NAME": "MARY IMOGENE BASSETT HOSPITAL", "CITY": "COOPERSTOWN", "BEDS": 180 }, "geometry": { "type": "Point", "coordinates": [ -74.92296, 42.69526 ] } },
{ "type": "Feature", "properties": { "NAME": "SJRH - PARK CARE PAVILION", "CITY": "YONKERS", "BEDS": 141 }, "geometry": { "type": "Point", "coordinates": [ -73.89165, 40.94039 ] } },
{ "type": "Feature", "properties": { "NAME": "VA MEDICAL CENTER - BATH", "CITY": "BATH", "BEDS": -999 }, "geometry": { "type": "Point", "coordinates": [ -77.34751, 42.34405 ] } },
{ "type": "Feature", "properties": { "NAME": "VA MEDICAL CENTER - CANANDAIGUA", "CITY": "CANANDAIGUA", "BEDS": -999 }, "geometry": { "type": "Point", "coordinates": [ -77.26964, 42.90124 ] } },
{ "type": "Feature", "properties": { "NAME": "JAMES J. PETERS VA MEDICAL CENTER", "CITY": "BRONX", "BEDS": -999 }, "geometry": { "type": "Point", "coordinates": [ -73.90638, 40.86735 ] } },
{ "type": "Feature", "properties": { "NAME": "FOUR WINDS HOSPITAL WESTCHESTER", "CITY": "KATONAH", "BEDS": 178 }, "geometry": { "type": "Point", "coordinates": [ -73.62072, 41.26639 ] } },
{ "type": "Feature", "properties": { "NAME": "FOUR WINDS HOSPITAL SARATOGA", "CITY": "SARATOGA SPRINGS", "BEDS": 88 }, "geometry": { "type": "Point", "coordinates": [ -73.7854, 43.05813 ] } },
{ "type": "Feature", "properties": { "NAME": "HUTCHINGS PSYCHIATRIC CENTER", "CITY": "SYRACUSE", "BEDS": -999 }, "geometry": { "type": "Point", "coordinates": [ -76.14054, 43.04519 ] } },
{ "type": "Feature", "properties": { "NAME": "STATEN ISLAND UNIVERSITY HOSPITAL - SOUTH", "CITY": "STATEN ISLAND", "BEDS": 206 }, "geometry": { "type": "Point", "coordinates": [ -74.19647, 40.51657 ] } },
{ "type": "Feature", "properties": { "NAME": "MEMORIAL HOSPITAL FOR CANCER AND ALLIED DISEASES", "CITY": "NEW YORK", "BEDS": 514 }, "geometry": { "type": "Point", "coordinates": [ -73.9566, 40.76427 ] } },
{ "type": "Feature", "properties": { "NAME": "ST. MARY'S HEALTHCARE", "CITY": "AMSTERDAM", "BEDS": 120 }, "geometry": { "type": "Point", "coordinates": [ -74.21606, 42.95442 ] } },
{ "type": "Feature", "properties": { "NAME": "ARNOT OGDEN MEDICAL CENTER", "CITY": "ELMIRA", "BEDS": 266 }, "geometry": { "type": "Point", "coordinates": [ -76.82776, 42.10015 ] } },
{ "type": "Feature", "properties": { "NAME": "DELAWARE VALLEY HOSPITAL", "CITY": "WALTON", "BEDS": 25 }, "geometry": { "type": "Point", "coordinates": [ -75.12872, 42.16427 ] } },
{ "type": "Feature", "properties": { "NAME": "BUFFALO GENERAL MEDICAL CENTER", "CITY": "BUFFALO", "BEDS": 501 }, "geometry": { "type": "Point", "coordinates": [ -78.86621, 42.90087 ] } },
{ "type": "Feature", "properties": { "NAME": "MERCY HOSPITAL", "CITY": "BUFFALO", "BEDS": 438 }, "geometry": { "type": "Point", "coordinates": [ -78.81197, 42.8475 ] } },
{ "type": "Feature", "properties": { "NAME": "MARGARETVILLE MEMORIAL HOSPITAL", "CITY": "MARGARETVILLE", "BEDS": 15 }, "geometry": { "type": "Point", "coordinates": [ -74.64207, 42.14665 ] } },
{ "type": "Feature", "properties": { "NAME": "KENMORE MERCY HOSPITAL", "CITY": "BUFFALO", "BEDS": 184 }, "geometry": { "type": "Point", "coordinates": [ -78.88012, 42.9776 ] } },
{ "type": "Feature", "properties": { "NAME": "ROSWELL PARK CANCER INSTITUTE", "CITY": "BUFFALO", "BEDS": 123 }, "geometry": { "type": "Point", "coordinates": [ -78.86489, 42.89921 ] } },
{ "type": "Feature", "properties": { "NAME": "MOSES LUDINGTON HOSPITAL", "CITY": "TICONDEROGA", "BEDS": 15 }, "geometry": { "type": "Point", "coordinates": [ -73.43702, 43.84953 ] } },
{ "type": "Feature", "properties": { "NAME": "ADIRONDACK MEDICAL CENTER", "CITY": "SARANAC LAKE", "BEDS": 97 }, "geometry": { "type": "Point", "coordinates": [ -74.14314, 44.34504 ] } },
{ "type": "Feature", "properties": { "NAME": "LITTLE FALLS HOSPITAL", "CITY": "LITTLE FALLS", "BEDS": 25 }, "geometry": { "type": "Point", "coordinates": [ -74.84749, 43.04424 ] } },
{ "type": "Feature", "properties": { "NAME": "RIVER HOSPITAL", "CITY": "ALEXANDRIA BAY", "BEDS": 15 }, "geometry": { "type": "Point", "coordinates": [ -75.92051, 44.33771 ] } },
{ "type": "Feature", "properties": { "NAME": "COMMUNITY MEMORIAL HOSPITAL", "CITY": "HAMILTON", "BEDS": 25 }, "geometry": { "type": "Point", "coordinates": [ -75.5434, 42.81344 ] } },
{ "type": "Feature", "properties": { "NAME": "HIGHLAND HOSPITAL", "CITY": "ROCHESTER", "BEDS": 261 }, "geometry": { "type": "Point", "coordinates": [ -77.606, 43.13529 ] } },
{ "type": "Feature", "properties": { "NAME": "CARTHAGE AREA HOSPITAL", "CITY": "CARTHAGE", "BEDS": 35 }, "geometry": { "type": "Point", "coordinates": [ -75.59409, 43.98726 ] } },
{ "type": "Feature", "properties": { "NAME": "LONG BEACH MEDICAL CENTER", "CITY": "LONG BEACH", "BEDS": 162 }, "geometry": { "type": "Point", "coordinates": [ -73.65223, 40.59455 ] } },
{ "type": "Feature", "properties": { "NAME": "LONG ISLAND JEWISH VALLEY STREAM", "CITY": "VALLEY STREAM", "BEDS": 330 }, "geometry": { "type": "Point", "coordinates": [ -73.6863, 40.68113 ] } },
{ "type": "Feature", "properties": { "NAME": "ST. JOSEPH HOSPITAL", "CITY": "BETHPAGE", "BEDS": 203 }, "geometry": { "type": "Point", "coordinates": [ -73.47872, 40.72677 ] } },
{ "type": "Feature", "properties": { "NAME": "MERCY MEDICAL CENTER", "CITY": "ROCKVILLE CENTRE", "BEDS": 375 }, "geometry": { "type": "Point", "coordinates": [ -73.6316, 40.68851 ] } },
{ "type": "Feature", "properties": { "NAME": "SAINT FRANCIS HOSPITAL", "CITY": "ROSLYN", "BEDS": 364 }, "geometry": { "type": "Point", "coordinates": [ -73.67059, 40.80475 ] } },
{ "type": "Feature", "properties": { "NAME": "ROME MEMORIAL HOSPITAL", "CITY": "ROME", "BEDS": 130 }, "geometry": { "type": "Point", "coordinates": [ -75.44235, 43.22913 ] } },
{ "type": "Feature", "properties": { "NAME": "ST. ELIZABETH MEDICAL CENTER", "CITY": "UTICA", "BEDS": 201 }, "geometry": { "type": "Point", "coordinates": [ -75.26611, 43.08217 ] } },
{ "type": "Feature", "properties": { "NAME": "UPSTATE UNIVERSITY HOSPITAL - COMMUNITY CAMPUS", "CITY": "SYRACUSE", "BEDS": 326 }, "geometry": { "type": "Point", "coordinates": [ -76.1679, 43.00804 ] } },
{ "type": "Feature", "properties": { "NAME": "GENEVA GENERAL HOSPITAL", "CITY": "GENEVA", "BEDS": 132 }, "geometry": { "type": "Point", "coordinates": [ -76.98777, 42.87646 ] } },
{ "type": "Feature", "properties": { "NAME": "ST. LUKE'S CORNWALL HOSPITAL - CORNWALL CAMPUS", "CITY": "CORNWALL", "BEDS": 125 }, "geometry": { "type": "Point", "coordinates": [ -74.04232, 41.43525 ] } },
{ "type": "Feature", "properties": { "NAME": "FF THOMPSON HOSPITAL", "CITY": "CANANDAIGUA", "BEDS": 113 }, "geometry": { "type": "Point", "coordinates": [ -77.29024, 42.87601 ] } },
{ "type": "Feature", "properties": { "NAME": "ST ANTHONY COMMUNITY HOSPITAL", "CITY": "WARWICK", "BEDS": 60 }, "geometry": { "type": "Point", "coordinates": [ -74.35746, 41.26136 ] } },
{ "type": "Feature", "properties": { "NAME": "BON SECOURS COMMUNITY HOSPITAL", "CITY": "PORT JERVIS", "BEDS": 122 }, "geometry": { "type": "Point", "coordinates": [ -74.6816, 41.36764 ] } },
{ "type": "Feature", "properties": { "NAME": "PUTNAM HOSPITAL CENTER", "CITY": "CARMEL", "BEDS": 164 }, "geometry": { "type": "Point", "coordinates": [ -73.66298, 41.38263 ] } },
{ "type": "Feature", "properties": { "NAME": "ST MARY'S HOSPITAL", "CITY": "TROY", "BEDS": 196 }, "geometry": { "type": "Point", "coordinates": [ -73.67642, 42.74272 ] } },
{ "type": "Feature", "properties": { "NAME": "SUMMIT PARK HOSPITAL & NURSING CARE CENTER", "CITY": "POMONA", "BEDS": 378 }, "geometry": { "type": "Point", "coordinates": [ -74.03806, 41.15908 ] } },
{ "type": "Feature", "properties": { "NAME": "CLAXTON-HEPBURN MEDICAL CENTER", "CITY": "OGDENSBURG", "BEDS": 130 }, "geometry": { "type": "Point", "coordinates": [ -75.49989, 44.69159 ] } },
{ "type": "Feature", "properties": { "NAME": "EDWARD JOHN NOBLE HOSPITAL OF GOUVERNEUR", "CITY": "GOUVERNEUR", "BEDS": 25 }, "geometry": { "type": "Point", "coordinates": [ -75.47485, 44.33753 ] } },
{ "type": "Feature", "properties": { "NAME": "CLIFTON-FINE HOSPITAL", "CITY": "STAR LAKE", "BEDS": 20 }, "geometry": { "type": "Point", "coordinates": [ -75.0563, 44.16241 ] } },
{ "type": "Feature", "properties": { "NAME": "SUNNYVIEW REHABILITATION HOSPITAL", "CITY": "SCHENECTADY", "BEDS": 115 }, "geometry": { "type": "Point", "coordinates": [ -73.91631, 42.82017 ] } },
{ "type": "Feature", "properties": { "NAME": "COBLESKILL REGIONAL HOSPITAL", "CITY": "COBLESKILL", "BEDS": 40 }, "geometry": { "type": "Point", "coordinates": [ -74.4818, 42.68693 ] } },
{ "type": "Feature", "properties": { "NAME": "SCHUYLER HOSPITAL", "CITY": "MONTOUR FALLS", "BEDS": 25 }, "geometry": { "type": "Point", "coordinates": [ -76.85997, 42.35246 ] } },
{ "type": "Feature", "properties": { "NAME": "HEALTHALLIANCE HOSPITAL - MARY'S AVENUE CAMPSU", "CITY": "KINGSTON", "BEDS": 150 }, "geometry": { "type": "Point", "coordinates": [ -73.99969, 41.92149 ] } },
{ "type": "Feature", "properties": { "NAME": "WHITE PLAINS HOSPITAL CENTER", "CITY": "WHITE PLAINS", "BEDS": 292 }, "geometry": { "type": "Point", "coordinates": [ -73.76931, 41.02559 ] } },
{ "type": "Feature", "properties": { "NAME": "NEW YORK-PRESBYTERIAN\/LAWRENCE HOSPITAL", "CITY": "BRONXVILLE", "BEDS": 187 }, "geometry": { "type": "Point", "coordinates": [ -73.83656, 40.94209 ] } },
{ "type": "Feature", "properties": { "NAME": "SOLDIERS AND SAILORS MEMORIAL HOSPITAL", "CITY": "PENN YAN", "BEDS": 25 }, "geometry": { "type": "Point", "coordinates": [ -77.0612, 42.6714 ] } },
{ "type": "Feature", "properties": { "NAME": "BRONX-LEBANON HOSPITAL CENTER - FULTON DIVISION", "CITY": "BRONX", "BEDS": 164 }, "geometry": { "type": "Point", "coordinates": [ -73.90406, 40.83171 ] } },
{ "type": "Feature", "properties": { "NAME": "WYOMING COUNTY COMMUNITY HOSPITAL", "CITY": "WARSAW", "BEDS": 62 }, "geometry": { "type": "Point", "coordinates": [ -78.13107, 42.7543 ] } },
{ "type": "Feature", "properties": { "NAME": "WYCKOFF HEIGHTS MEDICAL CENTER", "CITY": "BROOKLYN", "BEDS": 324 }, "geometry": { "type": "Point", "coordinates": [ -73.91776, 40.70396 ] } },
{ "type": "Feature", "properties": { "NAME": "LENOX HILL HOSPITAL", "CITY": "NEW YORK", "BEDS": 632 }, "geometry": { "type": "Point", "coordinates": [ -73.96089, 40.7737 ] } },
{ "type": "Feature", "properties": { "NAME": "RICHMOND UNIVERSITY MEDICAL CENTER - BAYLEY SETON CAMPUS", "CITY": "STATEN ISLAND", "BEDS": 25 }, "geometry": { "type": "Point", "coordinates": [ -74.07535, 40.62243 ] } },
{ "type": "Feature", "properties": { "NAME": "FLUSHING HOSPITAL MEDICAL CENTER", "CITY": "FLUSHING", "BEDS": 293 }, "geometry": { "type": "Point", "coordinates": [ -73.81647, 40.75541 ] } },
{ "type": "Feature", "properties": { "NAME": "ST. JOHN'S EPISCOPAL HOSPITAL-SOUTH SHORE", "CITY": "FAR ROCKAWAY", "BEDS": 241 }, "geometry": { "type": "Point", "coordinates": [ -73.75355, 40.59871 ] } },
{ "type": "Feature", "properties": { "NAME": "BRONX-LEBANON HOSPITAL CENTER - CONCOURSE DIVISION", "CITY": "BRONX", "BEDS": 415 }, "geometry": { "type": "Point", "coordinates": [ -73.91115, 40.84349 ] } },
{ "type": "Feature", "properties": { "NAME": "ELLIS HOSPITAL", "CITY": "SCHENECTADY", "BEDS": 368 }, "geometry": { "type": "Point", "coordinates": [ -73.91732, 42.81986 ] } },
{ "type": "Feature", "properties": { "NAME": "MERCY HOSPITAL - MERCY HOSPITAL ORCHARD PARK DIVISION", "CITY": "ORCHARD PARK", "BEDS": 2 }, "geometry": { "type": "Point", "coordinates": [ -78.77257, 42.78055 ] } },
{ "type": "Feature", "properties": { "NAME": "NEW YORK PRESBYTERIAN HOSPITAL - ALLEN HOSPITAL", "CITY": "NEW YORK", "BEDS": 196 }, "geometry": { "type": "Point", "coordinates": [ -73.91305, 40.87328 ] } },
{ "type": "Feature", "properties": { "NAME": "NEWYORK-PRESBYTERIAN\/HUDSON VALLEY HOSPITAL", "CITY": "CORTLANDT MANOR", "BEDS": 128 }, "geometry": { "type": "Point", "coordinates": [ -73.8926, 41.29246 ] } },
{ "type": "Feature", "properties": { "NAME": "NICHOLAS H NOYES MEMORIAL HOSPITAL", "CITY": "DANSVILLE", "BEDS": 67 }, "geometry": { "type": "Point", "coordinates": [ -77.69777, 42.55303 ] } },
{ "type": "Feature", "properties": { "NAME": "NORTHERN DUTCHESS HOSPITAL", "CITY": "RHINEBECK", "BEDS": 68 }, "geometry": { "type": "Point", "coordinates": [ -73.9132, 41.93547 ] } },
{ "type": "Feature", "properties": { "NAME": "OSWEGO HOSPITAL - ALVIN L KRAKAU COMM MTL HEALTH CENTER DIV", "CITY": "OSWEGO", "BEDS": 32 }, "geometry": { "type": "Point", "coordinates": [ -76.48992, 43.44856 ] } },
{ "type": "Feature", "properties": { "NAME": "ROCKEFELLER UNIVERSITY HOSPITAL", "CITY": "NEW YORK", "BEDS": 40 }, "geometry": { "type": "Point", "coordinates": [ -73.95462, 40.76305 ] } },
{ "type": "Feature", "properties": { "NAME": "MOUNT SINAI WEST", "CITY": "NEW YORK", "BEDS": 514 }, "geometry": { "type": "Point", "coordinates": [ -73.9874, 40.76982 ] } },
{ "type": "Feature", "properties": { "NAME": "NEW YORK-PRESBYTERIAN\/LOWER MANHATTAN HOSPITAL", "CITY": "NEW YORK", "BEDS": 180 }, "geometry": { "type": "Point", "coordinates": [ -74.0053, 40.71052 ] } },
{ "type": "Feature", "properties": { "NAME": "WINIFRED MASTERSON BURKE REHABILITATION HOSPITAL", "CITY": "WHITE PLAINS", "BEDS": 150 }, "geometry": { "type": "Point", "coordinates": [ -73.75151, 41.01681 ] } },
{ "type": "Feature", "properties": { "NAME": "ST JAMES MERCY HOSPITAL - MERCYCARE", "CITY": "NORTH HORNELL", "BEDS": -999 }, "geometry": { "type": "Point", "coordinates": [ -77.6631, 42.34749 ] } },
{ "type": "Feature", "properties": { "NAME": "CORNING HOSPITAL", "CITY": "CORNING", "BEDS": 65 }, "geometry": { "type": "Point", "coordinates": [ -76.96952, 42.13535 ] } },
{ "type": "Feature", "properties": { "NAME": "VA MEDICAL CENTER - MONTROSE CAMPUS", "CITY": "MONTROSE", "BEDS": -999 }, "geometry": { "type": "Point", "coordinates": [ -73.92928, 41.23702 ] } },
{ "type": "Feature", "properties": { "NAME": "VA MEDICAL CENTER - SYRACUSE", "CITY": "SYRACUSE", "BEDS": -999 }, "geometry": { "type": "Point", "coordinates": [ -76.13895, 43.03883 ] } },
{ "type": "Feature", "properties": { "NAME": "CAPITAL DISTRICT PSYCHIATRIC CENTER", "CITY": "ALBANY", "BEDS": -999 }, "geometry": { "type": "Point", "coordinates": [ -73.7802, 42.65449 ] } },
{ "type": "Feature", "properties": { "NAME": "BRUNSWICK HOSPITAL CENTER, INC", "CITY": "AMITYVILLE", "BEDS": 124 }, "geometry": { "type": "Point", "coordinates": [ -73.42115, 40.68524 ] } },
{ "type": "Feature", "properties": { "NAME": "ST. PETER'S HOSPITAL", "CITY": "ALBANY", "BEDS": 442 }, "geometry": { "type": "Point", "coordinates": [ -73.80366, 42.65597 ] } },
{ "type": "Feature", "properties": { "NAME": "CUBA MEMORIAL HOSPITAL", "CITY": "CUBA", "BEDS": 6 }, "geometry": { "type": "Point", "coordinates": [ -78.28786, 42.21292 ] } },
{ "type": "Feature", "properties": { "NAME": "NEW YORK COMMUNITY HOSPITAL", "CITY": "BROOKLYN", "BEDS": 134 }, "geometry": { "type": "Point", "coordinates": [ -73.94871, 40.61377 ] } },
{ "type": "Feature", "properties": { "NAME": "STONY BROOK UNIVERSITY HOSPITAL", "CITY": "STONY BROOK", "BEDS": 603 }, "geometry": { "type": "Point", "coordinates": [ -73.11568, 40.90919 ] } },
{ "type": "Feature", "properties": { "NAME": "MID-HUDSON VALLEY DIVISION OF WESTCHESTER MEDICAL CENTER", "CITY": "POUGHKEEPSIE", "BEDS": 243 }, "geometry": { "type": "Point", "coordinates": [ -73.92771, 41.71784 ] } },
{ "type": "Feature", "properties": { "NAME": "CATSKILL REGIONAL MEDICAL CENTER", "CITY": "HARRIS", "BEDS": 154 }, "geometry": { "type": "Point", "coordinates": [ -74.73752, 41.70906 ] } },
{ "type": "Feature", "properties": { "NAME": "ADIRONDACK MEDICAL CENTER-LAKE PLACID SITE", "CITY": "LAKE PLACID", "BEDS": -999 }, "geometry": { "type": "Point", "coordinates": [ -73.98187, 44.26725 ] } },
{ "type": "Feature", "properties": { "NAME": "ALBANY MEDICAL CENTER - SOUTH CLINICAL CAMPUS", "CITY": "ALBANY", "BEDS": 18 }, "geometry": { "type": "Point", "coordinates": [ -73.78011, 42.64581 ] } },
{ "type": "Feature", "properties": { "NAME": "ALBANY MEDICAL CENTER", "CITY": "ALBANY", "BEDS": 716 }, "geometry": { "type": "Point", "coordinates": [ -73.77666, 42.65341 ] } },
{ "type": "Feature", "properties": { "NAME": "GRACIE SQUARE HOSPITAL", "CITY": "NEW YORK", "BEDS": 157 }, "geometry": { "type": "Point", "coordinates": [ -73.95302, 40.76972 ] } },
{ "type": "Feature", "properties": { "NAME": "ST. CATHERINE OF SIENA MEDICAL CENTER", "CITY": "SMITHTOWN", "BEDS": 306 }, "geometry": { "type": "Point", "coordinates": [ -73.223, 40.8685 ] } },
{ "type": "Feature", "properties": { "NAME": "VA MEDICAL CENTER - CASTLE POINT CAMPUS", "CITY": "CASTLE POINT", "BEDS": -999 }, "geometry": { "type": "Point", "coordinates": [ -73.96338, 41.54362 ] } },
{ "type": "Feature", "properties": { "NAME": "ST JOHN'S EPISCOPAL HOSPITAL SOUTH SHORE", "CITY": "BETHPAGE", "BEDS": -999 }, "geometry": { "type": "Point", "coordinates": [ -73.49457, 40.73923 ] } },
{ "type": "Feature", "properties": { "NAME": "OLEAN GENERAL HOSPITAL", "CITY": "OLEAN", "BEDS": 186 }, "geometry": { "type": "Point", "coordinates": [ -78.42784, 42.08993 ] } },
{ "type": "Feature", "properties": { "NAME": "OUR LADY OF LOURDES MEMORIAL HOSPITAL", "CITY": "BINGHAMTON", "BEDS": 242 }, "geometry": { "type": "Point", "coordinates": [ -75.93693, 42.09139 ] } },
{ "type": "Feature", "properties": { "NAME": "WCA HOSPITAL", "CITY": "JAMESTOWN", "BEDS": 245 }, "geometry": { "type": "Point", "coordinates": [ -79.23212, 42.09127 ] } },
{ "type": "Feature", "properties": { "NAME": "CORTLAND REGIONAL MEDICAL CENTER", "CITY": "CORTLAND", "BEDS": 162 }, "geometry": { "type": "Point", "coordinates": [ -76.18732, 42.60883 ] } },
{ "type": "Feature", "properties": { "NAME": "SISTERS OF CHARITY HOSPITAL", "CITY": "BUFFALO", "BEDS": 290 }, "geometry": { "type": "Point", "coordinates": [ -78.84846, 42.92844 ] } },
{ "type": "Feature", "properties": { "NAME": "BERTRAND CHAFFEE HOSPITAL", "CITY": "SPRINGVILLE", "BEDS": 24 }, "geometry": { "type": "Point", "coordinates": [ -78.65857, 42.50896 ] } },
{ "type": "Feature", "properties": { "NAME": "SISTERS OF CHARITY HOSPITAL - ST JOSEPH CAMPUS", "CITY": "CHEEKTOWAGA", "BEDS": 123 }, "geometry": { "type": "Point", "coordinates": [ -78.7824, 42.9143 ] } },
{ "type": "Feature", "properties": { "NAME": "ELIZABETHTOWN COMMUNITY HOSPITAL", "CITY": "ELIZABETHTOWN", "BEDS": 25 }, "geometry": { "type": "Point", "coordinates": [ -73.59552, 44.21538 ] } },
{ "type": "Feature", "properties": { "NAME": "NATHAN LITTAUER HOSPITAL", "CITY": "GLOVERSVILLE", "BEDS": 74 }, "geometry": { "type": "Point", "coordinates": [ -74.33192, 43.07159 ] } },
{ "type": "Feature", "properties": { "NAME": "ALICE HYDE MEDICAL CENTER", "CITY": "MALONE", "BEDS": 76 }, "geometry": { "type": "Point", "coordinates": [ -74.29129, 44.85674 ] } },
{ "type": "Feature", "properties": { "NAME": "UNITED MEMORIAL MEDICAL CENTER BANK STREET CAMPUS", "CITY": "BATAVIA", "BEDS": 20 }, "geometry": { "type": "Point", "coordinates": [ -78.18111, 42.99865 ] } },
{ "type": "Feature", "properties": { "NAME": "SAMARITAN MEDICAL CENTER", "CITY": "WATERTOWN", "BEDS": 294 }, "geometry": { "type": "Point", "coordinates": [ -75.91456, 43.96504 ] } },
{ "type": "Feature", "properties": { "NAME": "LEWIS COUNTY GENERAL HOSPITAL", "CITY": "LOWVILLE", "BEDS": 31 }, "geometry": { "type": "Point", "coordinates": [ -75.49912, 43.79579 ] } },
{ "type": "Feature", "properties": { "NAME": "ROCHESTER GENERAL HOSPITAL", "CITY": "ROCHESTER", "BEDS": 528 }, "geometry": { "type": "Point", "coordinates": [ -77.58681, 43.19224 ] } },
{ "type": "Feature", "properties": { "NAME": "MONROE COMMUNITY HOSPITAL", "CITY": "ROCHESTER", "BEDS": 39 }, "geometry": { "type": "Point", "coordinates": [ -77.61799, 43.113 ] } },
{ "type": "Feature", "properties": { "NAME": "SYOSSET HOSPITAL", "CITY": "SYOSSET", "BEDS": 103 }, "geometry": { "type": "Point", "coordinates": [ -73.50867, 40.81087 ] } },
{ "type": "Feature", "properties": { "NAME": "PLAINVIEW HOSPITAL", "CITY": "PLAINVIEW", "BEDS": 219 }, "geometry": { "type": "Point", "coordinates": [ -73.47853, 40.77495 ] } },
{ "type": "Feature", "properties": { "NAME": "EASTERN NIAGARA HOSPITAL", "CITY": "LOCKPORT", "BEDS": 140 }, "geometry": { "type": "Point", "coordinates": [ -78.67114, 43.17737 ] } },
{ "type": "Feature", "properties": { "NAME": "NIAGARA FALLS MEMORIAL MEDICAL CENTER", "CITY": "NIAGARA FALLS", "BEDS": 171 }, "geometry": { "type": "Point", "coordinates": [ -79.04971, 43.09392 ] } },
{ "type": "Feature", "properties": { "NAME": "DEGRAFF MEMORIAL HOSPITAL", "CITY": "NORTH TONAWANDA", "BEDS": 66 }, "geometry": { "type": "Point", "coordinates": [ -78.86234, 43.02542 ] } },
{ "type": "Feature", "properties": { "NAME": "MOUNT ST. MARY'S HOSPITAL", "CITY": "LEWISTON", "BEDS": 175 }, "geometry": { "type": "Point", "coordinates": [ -79.03243, 43.15418 ] } },
{ "type": "Feature", "properties": { "NAME": "FAXTON-ST. LUKE'S HEALTHCARE - FAXTON CAMPUS", "CITY": "UTICA", "BEDS": 24 }, "geometry": { "type": "Point", "coordinates": [ -75.25812, 43.09101 ] } },
{ "type": "Feature", "properties": { "NAME": "FAXTON-ST. LUKE'S HEALTHCARE - ST. LUKE'S CAMPUS", "CITY": "UTICA", "BEDS": 370 }, "geometry": { "type": "Point", "coordinates": [ -75.27589, 43.09673 ] } },
{ "type": "Feature", "properties": { "NAME": "CROUSE HOSPITAL", "CITY": "SYRACUSE", "BEDS": 466 }, "geometry": { "type": "Point", "coordinates": [ -76.13839, 43.0413 ] } },
{ "type": "Feature", "properties": { "NAME": "CLIFTON SPRINGS HOSPITAL", "CITY": "CLIFTON SPRINGS", "BEDS": 154 }, "geometry": { "type": "Point", "coordinates": [ -77.13652, 42.9597 ] } },
{ "type": "Feature", "properties": { "NAME": "OSWEGO HOSPITAL", "CITY": "OSWEGO", "BEDS": 126 }, "geometry": { "type": "Point", "coordinates": [ -76.51638, 43.45402 ] } },
{ "type": "Feature", "properties": { "NAME": "AURELIA OSBORN FOX MEMORIAL HOSPITAL", "CITY": "ONEONTA", "BEDS": 60 }, "geometry": { "type": "Point", "coordinates": [ -75.05215, 42.45779 ] } },
{ "type": "Feature", "properties": { "NAME": "HELEN HAYES HOSPITAL", "CITY": "WEST HARVESTRAW", "BEDS": 130 }, "geometry": { "type": "Point", "coordinates": [ -73.98834, 41.21431 ] } },
{ "type": "Feature", "properties": { "NAME": "GOOD SAMARITAN HOSPITAL - SUFFERN", "CITY": "SUFFERN", "BEDS": 286 }, "geometry": { "type": "Point", "coordinates": [ -74.13481, 41.1116 ] } },
{ "type": "Feature", "properties": { "NAME": "MASSENA MEMORIAL HOSPITAL", "CITY": "MASSENA", "BEDS": 50 }, "geometry": { "type": "Point", "coordinates": [ -74.90874, 44.93623 ] } },
{ "type": "Feature", "properties": { "NAME": "ELLIS HEALTH CENTER", "CITY": "SCHENECTADY", "BEDS": -999 }, "geometry": { "type": "Point", "coordinates": [ -73.91579, 42.80485 ] } },
{ "type": "Feature", "properties": { "NAME": "BELLEVUE WOMAN'S CENTER OF ELLIS MEDICINE", "CITY": "NISKAYUNA", "BEDS": 55 }, "geometry": { "type": "Point", "coordinates": [ -73.87895, 42.79277 ] } },
{ "type": "Feature", "properties": { "NAME": "ST CHARLES HOSPITAL AND REHABILITATION CENTER", "CITY": "PORT JEFFERSON", "BEDS": 243 }, "geometry": { "type": "Point", "coordinates": [ -73.06096, 40.94663 ] } },
{ "type": "Feature", "properties": { "NAME": "CAYUGA MEDICAL CENTER", "CITY": "ITHACA", "BEDS": 212 }, "geometry": { "type": "Point", "coordinates": [ -76.53748, 42.46899 ] } },
{ "type": "Feature", "properties": { "NAME": "GROVER M. HERMAN HOSPITAL", "CITY": "CALLICOON", "BEDS": 15 }, "geometry": { "type": "Point", "coordinates": [ -75.04742, 41.74029 ] } },
{ "type": "Feature", "properties": { "NAME": "GLENS FALLS HOSPITAL", "CITY": "GLENS FALLS", "BEDS": 410 }, "geometry": { "type": "Point", "coordinates": [ -73.64631, 43.30663 ] } },
{ "type": "Feature", "properties": { "NAME": "NORTHERN WESTCHESTER HOSPITAL", "CITY": "MOUNT KISCO", "BEDS": 145 }, "geometry": { "type": "Point", "coordinates": [ -73.7257, 41.19705 ] } },
{ "type": "Feature", "properties": { "NAME": "CALVARY HOSPITAL", "CITY": "BRONX", "BEDS": 225 }, "geometry": { "type": "Point", "coordinates": [ -73.84394, 40.84799 ] } },
{ "type": "Feature", "properties": { "NAME": "MAIMONIDES MEDICAL CENTER", "CITY": "BROOKLYN", "BEDS": 679 }, "geometry": { "type": "Point", "coordinates": [ -73.99845, 40.63948 ] } },
{ "type": "Feature", "properties": { "NAME": "HOSPITAL FOR SPECIAL SURGERY", "CITY": "NEW YORK", "BEDS": 215 }, "geometry": { "type": "Point", "coordinates": [ -73.95231, 40.76492 ] } },
{ "type": "Feature", "properties": { "NAME": "METROPOLITAN HOSPITAL CENTER", "CITY": "NEW YORK", "BEDS": 338 }, "geometry": { "type": "Point", "coordinates": [ -73.94453, 40.78493 ] } },
{ "type": "Feature", "properties": { "NAME": "NEW YORK EYE AND EAR INFIRMARY", "CITY": "NEW YORK", "BEDS": 69 }, "geometry": { "type": "Point", "coordinates": [ -73.98448, 40.73185 ] } },
{ "type": "Feature", "properties": { "NAME": "MOUNT SINAI HOSPITAL", "CITY": "NEW YORK", "BEDS": 1144 }, "geometry": { "type": "Point", "coordinates": [ -73.95321, 40.78977 ] } },
{ "type": "Feature", "properties": { "NAME": "QUEENS HOSPITAL CENTER", "CITY": "JAMAICA", "BEDS": 247 }, "geometry": { "type": "Point", "coordinates": [ -73.80456, 40.71707 ] } },
{ "type": "Feature", "properties": { "NAME": "FOREST HILLS HOSPITAL", "CITY": "FOREST HILLS", "BEDS": 222 }, "geometry": { "type": "Point", "coordinates": [ -73.85151, 40.72899 ] } },
{ "type": "Feature", "properties": { "NAME": "WOODHULL MEDICAL AND MENTAL HEALTH CENTER", "CITY": "BROOKLYN", "BEDS": 388 }, "geometry": { "type": "Point", "coordinates": [ -73.94238, 40.69952 ] } },
{ "type": "Feature", "properties": { "NAME": "MILLARD FILLMORE SUBURBAN HOSPITAL", "CITY": "WILLIAMSVILLE", "BEDS": 265 }, "geometry": { "type": "Point", "coordinates": [ -78.73024, 42.99404 ] } },
{ "type": "Feature", "properties": { "NAME": "ALBANY MEMORIAL HOSPITAL", "CITY": "ALBANY", "BEDS": 165 }, "geometry": { "type": "Point", "coordinates": [ -73.74867, 42.67418 ] } },
{ "type": "Feature", "properties": { "NAME": "KINGSBROOK JEWISH MEDICAL CENTER", "CITY": "BROOKLYN", "BEDS": 303 }, "geometry": { "type": "Point", "coordinates": [ -73.93355, 40.65944 ] } },
{ "type": "Feature", "properties": { "NAME": "LENOX HILL HEALTHPLEX", "CITY": "NEW YORK", "BEDS": -999 }, "geometry": { "type": "Point", "coordinates": [ -74.00074, 40.73774 ] } },
{ "type": "Feature", "properties": { "NAME": "LONG ISLAND JEWISH MEDICAL CENTER", "CITY": "NEW HYDE PARK", "BEDS": 1025 }, "geometry": { "type": "Point", "coordinates": [ -73.70811, 40.75434 ] } },
{ "type": "Feature", "properties": { "NAME": "MONTEFIORE MOUNT VERNON HOSPITAL", "CITY": "MOUNT VERNON", "BEDS": 176 }, "geometry": { "type": "Point", "coordinates": [ -73.84056, 40.9129 ] } },
{ "type": "Feature", "properties": { "NAME": "MOUNT SINAI HOSPITAL - MOUNT SINAI HOSPITAL OF QUEENS", "CITY": "LONG ISLAND CITY", "BEDS": 228 }, "geometry": { "type": "Point", "coordinates": [ -73.92488, 40.7683 ] } },
{ "type": "Feature", "properties": { "NAME": "CROUSE HOSPITAL - COMMONWEALTH DIVISION", "CITY": "SYRACUSE", "BEDS": 40 }, "geometry": { "type": "Point", "coordinates": [ -76.10739, 43.09844 ] } },
{ "type": "Feature", "properties": { "NAME": "ONEIDA HEALTHCARE", "CITY": "ONEIDA", "BEDS": 101 }, "geometry": { "type": "Point", "coordinates": [ -75.65449, 43.07771 ] } },
{ "type": "Feature", "properties": { "NAME": "JOHN T MATHER MEMORIAL HOSPITAL OF PORT JEFFERSON NEW YORK INC", "CITY": "PORT JEFFERSON", "BEDS": 248 }, "geometry": { "type": "Point", "coordinates": [ -73.0544, 40.93907 ] } },
{ "type": "Feature", "properties": { "NAME": "ST. PETER'S ADDICTION RECOVERY CENTER", "CITY": "GUILDERLAND", "BEDS": 40 }, "geometry": { "type": "Point", "coordinates": [ -73.90522, 42.69963 ] } },
{ "type": "Feature", "properties": { "NAME": "THE UNITY HOSPITAL OF ROCHESTER", "CITY": "ROCHESTER", "BEDS": 311 }, "geometry": { "type": "Point", "coordinates": [ -77.70515, 43.19292 ] } },
{ "type": "Feature", "properties": { "NAME": "THE UNITY HOSPITAL OF ROCHESTER-ST MARYS CAMPUS", "CITY": "ROCHESTER", "BEDS": 40 }, "geometry": { "type": "Point", "coordinates": [ -77.6371, 43.1487 ] } },
{ "type": "Feature", "properties": { "NAME": "MONTEFIORE MED CENTER - JACK D WEILER HOSP OF A EINSTEIN COLLEGE DIV", "CITY": "BRONX", "BEDS": 421 }, "geometry": { "type": "Point", "coordinates": [ -73.84589, 40.84989 ] } },
{ "type": "Feature", "properties": { "NAME": "TRI TOWN REGIONAL HEALTHCARE", "CITY": "SIDNEY", "BEDS": 4 }, "geometry": { "type": "Point", "coordinates": [ -75.39547, 42.30415 ] } },
{ "type": "Feature", "properties": { "NAME": "UNITED MEMORIAL MEDICAL CENTER NORTH STREET CAMPUS", "CITY": "BATAVIA", "BEDS": 111 }, "geometry": { "type": "Point", "coordinates": [ -78.17663, 43.00506 ] } },
{ "type": "Feature", "properties": { "NAME": "UNIVERSITY HOSPITAL OF BROOKLYN", "CITY": "BROOKLYN", "BEDS": 342 }, "geometry": { "type": "Point", "coordinates": [ -73.94423, 40.65484 ] } },
{ "type": "Feature", "properties": { "NAME": "NYU HOSPITALS CENTER", "CITY": "NEW YORK", "BEDS": 844 }, "geometry": { "type": "Point", "coordinates": [ -73.97393, 40.74205 ] } },
{ "type": "Feature", "properties": { "NAME": "SJRH - ST JOHNS DIVISION", "CITY": "YONKERS", "BEDS": 225 }, "geometry": { "type": "Point", "coordinates": [ -73.88615, 40.96891 ] } },
{ "type": "Feature", "properties": { "NAME": "ST JOSEPH'S MEDICAL CENTER", "CITY": "YONKERS", "BEDS": 194 }, "geometry": { "type": "Point", "coordinates": [ -73.89769, 40.92926 ] } },
{ "type": "Feature", "properties": { "NAME": "STATEN ISLAND UNIV HOSP-CONCORD DIV", "CITY": "STATEN ISLAND", "BEDS": -999 }, "geometry": { "type": "Point", "coordinates": [ -74.09182, 40.60306 ] } },
{ "type": "Feature", "properties": { "NAME": "MOUNT SINAI BETH ISRAEL", "CITY": "NEW YORK", "BEDS": 825 }, "geometry": { "type": "Point", "coordinates": [ -73.98177, 40.7331 ] } },
{ "type": "Feature", "properties": { "NAME": "TLC HEALTH NETWORK LAKE SHORE HOSPITAL", "CITY": "IRVING", "BEDS": 45 }, "geometry": { "type": "Point", "coordinates": [ -79.12584, 42.55849 ] } },
{ "type": "Feature", "properties": { "NAME": "ST JOSEPHS HOSPITAL", "CITY": "ELMIRA", "BEDS": 125 }, "geometry": { "type": "Point", "coordinates": [ -76.79843, 42.09195 ] } },
{ "type": "Feature", "properties": { "NAME": "KELLER ARMY COMMUNITY HOSPITAL", "CITY": "WEST POINT", "BEDS": -999 }, "geometry": { "type": "Point", "coordinates": [ -73.97714, 41.40187 ] } },
{ "type": "Feature", "properties": { "NAME": "VA MEDICAL CENTER - BATAVIA", "CITY": "BATAVIA", "BEDS": -999 }, "geometry": { "type": "Point", "coordinates": [ -78.19787, 43.01334 ] } },
{ "type": "Feature", "properties": { "NAME": "VA MEDICAL CENTER - ALBANY STRATTON", "CITY": "ALBANY", "BEDS": -999 }, "geometry": { "type": "Point", "coordinates": [ -73.77194, 42.65081 ] } },
{ "type": "Feature", "properties": { "NAME": "VA MEDICAL CENTER - BUFFALO", "CITY": "BUFFALO", "BEDS": -999 }, "geometry": { "type": "Point", "coordinates": [ -78.81215, 42.95109 ] } },
{ "type": "Feature", "properties": { "NAME": "VA MEDICAL CENTER - MANHATTAN CAMPUS", "CITY": "NEW YORK", "BEDS": -999 }, "geometry": { "type": "Point", "coordinates": [ -73.97708, 40.73688 ] } },
{ "type": "Feature", "properties": { "NAME": "VA MEDICAL CENTER - NORTHPORT", "CITY": "NORTHPORT", "BEDS": -999 }, "geometry": { "type": "Point", "coordinates": [ -73.30869, 40.89368 ] } },
{ "type": "Feature", "properties": { "NAME": "VA MEDICAL CENTER - BROOKLYN CAMPUS", "CITY": "BROOKLYN", "BEDS": -999 }, "geometry": { "type": "Point", "coordinates": [ -74.02419, 40.60792 ] } },
{ "type": "Feature", "properties": { "NAME": "ST. ALBANS COMMUNITY LIVING CENTER", "CITY": "JAMAICA", "BEDS": -999 }, "geometry": { "type": "Point", "coordinates": [ -73.76868, 40.69065 ] } },
{ "type": "Feature", "properties": { "NAME": "MALLARD FILLMORE GATES", "CITY": "BUFFALO", "BEDS": -999 }, "geometry": { "type": "Point", "coordinates": [ -78.86711, 42.91923 ] } },
{ "type": "Feature", "properties": { "NAME": "BRYLIN HOSPITAL", "CITY": "BUFFALO", "BEDS": 88 }, "geometry": { "type": "Point", "coordinates": [ -78.868, 42.91842 ] } },
{ "type": "Feature", "properties": { "NAME": "THE LONG ISLAND HOME", "CITY": "AMITYVILLE", "BEDS": 232 }, "geometry": { "type": "Point", "coordinates": [ -73.42263, 40.68577 ] } },
{ "type": "Feature", "properties": { "NAME": "GOLDWATER SPECIALTY HOSPITAL", "CITY": "NEW YORK", "BEDS": 1000 }, "geometry": { "type": "Point", "coordinates": [ -73.95717, 40.75398 ] } },
{ "type": "Feature", "properties": { "NAME": "BURKE REHABILITATION CENTER", "CITY": "BRONX", "BEDS": -999 }, "geometry": { "type": "Point", "coordinates": [ -73.83536, 40.84418 ] } },
{ "type": "Feature", "properties": { "NAME": "INTERFAITH MEDICAL CENTER", "CITY": "BROOKLYN", "BEDS": 287 }, "geometry": { "type": "Point", "coordinates": [ -73.93737, 40.67823 ] } },
{ "type": "Feature", "properties": { "NAME": "BRONX PSYCHIATRIC CENTER", "CITY": "BRONX", "BEDS": -999 }, "geometry": { "type": "Point", "coordinates": [ -73.83986, 40.84719 ] } },
{ "type": "Feature", "properties": { "NAME": "NEW YORK CITY CHILDREN'S CENTER - INPATIENT", "CITY": "BRONX", "BEDS": -999 }, "geometry": { "type": "Point", "coordinates": [ -73.8385, 40.84659 ] } },
{ "type": "Feature", "properties": { "NAME": "GREATER BINGHAMTON HEALTH CENTER", "CITY": "BINGHAMTON", "BEDS": -999 }, "geometry": { "type": "Point", "coordinates": [ -75.86827, 42.10582 ] } },
{ "type": "Feature", "properties": { "NAME": "BUFFALO PSYCHIATRIC CENTER", "CITY": "BUFFALO", "BEDS": -999 }, "geometry": { "type": "Point", "coordinates": [ -78.88026, 42.92909 ] } },
{ "type": "Feature", "properties": { "NAME": "WESTERN NEW YORK CHILDREN'S PSYCHIATRIC CENTER", "CITY": "WEST SENECA", "BEDS": -999 }, "geometry": { "type": "Point", "coordinates": [ -78.73155, 42.82387 ] } },
{ "type": "Feature", "properties": { "NAME": "KINGSBORO PSYCHIATRIC CENTER", "CITY": "BROOKLYN", "BEDS": -999 }, "geometry": { "type": "Point", "coordinates": [ -73.93913, 40.65649 ] } },
{ "type": "Feature", "properties": { "NAME": "ROCHESTER PSYCHIATRIC CENTER", "CITY": "ROCHESTER", "BEDS": -999 }, "geometry": { "type": "Point", "coordinates": [ -77.61058, 43.12331 ] } },
{ "type": "Feature", "properties": { "NAME": "KIRBY FORENSIC PSYCHIATRIC CENTER", "CITY": "WARDS ISLAND", "BEDS": -999 }, "geometry": { "type": "Point", "coordinates": [ -73.92913, 40.79 ] } },
{ "type": "Feature", "properties": { "NAME": "MANHATTAN PSYCHIATRIC CENTER", "CITY": "WARDS ISLAND", "BEDS": -999 }, "geometry": { "type": "Point", "coordinates": [ -73.93077, 40.78831 ] } },
{ "type": "Feature", "properties": { "NAME": "NEW YORK PSYCHIATRIC INSTITUTE", "CITY": "NEW YORK", "BEDS": -999 }, "geometry": { "type": "Point", "coordinates": [ -73.94455, 40.8424 ] } },
{ "type": "Feature", "properties": { "NAME": "CENTRAL NEW YORK PSYCHIATRIC CENTER", "CITY": "MARCY", "BEDS": -999 }, "geometry": { "type": "Point", "coordinates": [ -75.30232, 43.16744 ] } },
{ "type": "Feature", "properties": { "NAME": "MOHAWK VALLEY PSYCHIATRIC CENTER", "CITY": "UTICA", "BEDS": -999 }, "geometry": { "type": "Point", "coordinates": [ -75.26009, 43.10016 ] } },
{ "type": "Feature", "properties": { "NAME": "MID HUDSON FORENSIC PSYCHIATRIC CENTER", "CITY": "NEW HAMPTON", "BEDS": -999 }, "geometry": { "type": "Point", "coordinates": [ -74.39252, 41.40567 ] } },
{ "type": "Feature", "properties": { "NAME": "CREEDMOOR PSYCHIATRIC CENTER", "CITY": "QUEENS VILLAGE", "BEDS": -999 }, "geometry": { "type": "Point", "coordinates": [ -73.73153, 40.74114 ] } },
{ "type": "Feature", "properties": { "NAME": "NEW YORK CITY CHILDREN'S CENTER QUEENS INPATIENT", "CITY": "BELLEROSE", "BEDS": -999 }, "geometry": { "type": "Point", "coordinates": [ -73.72574, 40.74554 ] } },
{ "type": "Feature", "properties": { "NAME": "SOUTH BEACH PSYCHIATRIC CENTER", "CITY": "STATEN ISLAND", "BEDS": -999 }, "geometry": { "type": "Point", "coordinates": [ -74.08062, 40.58202 ] } },
{ "type": "Feature", "properties": { "NAME": "ELMIRA PSYCHIATRIC CENTER", "CITY": "ELMIRA", "BEDS": -999 }, "geometry": { "type": "Point", "coordinates": [ -76.79505, 42.09161 ] } },
{ "type": "Feature", "properties": { "NAME": "PARTRIDGE HOUSE", "CITY": "AKWESASNE", "BEDS": -999 }, "geometry": { "type": "Point", "coordinates": [ -74.66741, 44.97578 ] } },
{ "type": "Feature", "properties": { "NAME": "MEDINA MEMORIAL HOSPITAL", "CITY": "MEDINA", "BEDS": 39 }, "geometry": { "type": "Point", "coordinates": [ -78.39759, 43.22325 ] } },
{ "type": "Feature", "properties": { "NAME": "ST. VINCENT'S HOSPITAL WESTCHESTER", "CITY": "HARRISON", "BEDS": 138 }, "geometry": { "type": "Point", "coordinates": [ -73.70935, 40.98912 ] } },
{ "type": "Feature", "properties": { "NAME": "EASTERN NIAGARA HOSPITAL", "CITY": "NEWFANE", "BEDS": 71 }, "geometry": { "type": "Point", "coordinates": [ -78.70832, 43.28856 ] } },
{ "type": "Feature", "properties": { "NAME": "CHENANGO MEMORIAL HOSPITAL", "CITY": "NORWICH", "BEDS": 58 }, "geometry": { "type": "Point", "coordinates": [ -75.5258, 42.54116 ] } },
{ "type": "Feature", "properties": { "NAME": "O'CONNOR HOSPITAL", "CITY": "DELHI", "BEDS": 23 }, "geometry": { "type": "Point", "coordinates": [ -74.91639, 42.26835 ] } },
{ "type": "Feature", "properties": { "NAME": "COLER-GOLDWATER SPECIALTY HOSPITAL & NURSING FACILITY - COLER HOSPITAL SITE", "CITY": "NEW YORK", "BEDS": 210 }, "geometry": { "type": "Point", "coordinates": [ -73.94214, 40.7703 ] } },
{ "type": "Feature", "properties": { "NAME": "ST JOSEPH'S HOSPITAL HEALTH CENTER", "CITY": "SYRACUSE", "BEDS": 431 }, "geometry": { "type": "Point", "coordinates": [ -76.15006, 43.05593 ] } },
{ "type": "Feature", "properties": { "NAME": "LINCOLN HOSPITAL", "CITY": "BRONX", "BEDS": 362 }, "geometry": { "type": "Point", "coordinates": [ -73.92438, 40.81717 ] } },
{ "type": "Feature", "properties": { "NAME": "UHS BINGHAMTON GENERAL HOSPITAL", "CITY": "BINGHAMTON", "BEDS": 220 }, "geometry": { "type": "Point", "coordinates": [ -75.91444, 42.08632 ] } },
{ "type": "Feature", "properties": { "NAME": "UHS WILSON MEMORIAL HOSPITAL", "CITY": "JOHNSON CITY", "BEDS": 280 }, "geometry": { "type": "Point", "coordinates": [ -75.95852, 42.1142 ] } },
{ "type": "Feature", "properties": { "NAME": "TLC HEALTH NETWORK", "CITY": "GOWANDA", "BEDS": 62 }, "geometry": { "type": "Point", "coordinates": [ -78.94371, 42.46442 ] } },
{ "type": "Feature", "properties": { "NAME": "AUBURN COMMUNITY HOSPITAL", "CITY": "AUBURN", "BEDS": 99 }, "geometry": { "type": "Point", "coordinates": [ -76.56437, 42.94135 ] } },
{ "type": "Feature", "properties": { "NAME": "BROOKS MEMORIAL HOSPITAL", "CITY": "DUNKIRK", "BEDS": 65 }, "geometry": { "type": "Point", "coordinates": [ -79.33459, 42.47995 ] } },
{ "type": "Feature", "properties": { "NAME": "WESTFIELD MEMORIAL HOSPITAL", "CITY": "WESTFIELD", "BEDS": 4 }, "geometry": { "type": "Point", "coordinates": [ -79.56981, 42.3287 ] } },
{ "type": "Feature", "properties": { "NAME": "JONES MEMORIAL HOSPITAL", "CITY": "WELLSVILLE", "BEDS": 70 }, "geometry": { "type": "Point", "coordinates": [ -77.9509, 42.12242 ] } },
{ "type": "Feature", "properties": { "NAME": "COLUMBIA MEMORIAL HOSPITAL", "CITY": "HUDSON", "BEDS": 192 }, "geometry": { "type": "Point", "coordinates": [ -73.77745, 42.24634 ] } },
{ "type": "Feature", "properties": { "NAME": "GUTHRIE CORNING HOSPITAL", "CITY": "CORNING", "BEDS": 99 }, "geometry": { "type": "Point", "coordinates": [ -77.04741, 42.1406 ] } },
{ "type": "Feature", "properties": { "NAME": "PECONIC BAY MEDICAL CENTER", "CITY": "RIVERHEAD", "BEDS": 140 }, "geometry": { "type": "Point", "coordinates": [ -72.67362, 40.93426 ] } }
]
}
