{
"type":"FeatureCollection",
"name":"ma_hospitals",
"crs":{"type":"name","properties":{"name":"urn:ogc:def:crs:OGC:1.3:CRS84"}},
"features":[
{"type":"Feature","properties":{"NAME":"Beth Israel Deaconess Medical Center East","SHORTNAME":"BIDMC East","TOWN":"Boston","BEDS": 248},"geometry":{"type":"Point","coordinates":[-71.105680605312159,42.339828668349831]}},
{"type":"Feature","properties":{"NAME":"Steward St. Elizabeth's Medical Center","SHORTNAME":"St. Elizabeth's Medical Center","TOWN":"Brighton","BEDS": 252},"geometry":{"type":"Point","coordinates":[-71.147979746872096,42.349582562430186]}},
{"type":"Feature","properties":{"NAME":"Tufts Medical Center","SHORTNAME":"Tufts Medical Center","TOWN":"Boston","BEDS": 415},"geometry":{"type":"Point","coordinates":[-71.063515583791499,42.349651806069694]}},
{"type":"Feature","properties":{"NAME":"UMass Memorial Marlborough Hospital","SHORTNAME":"Marlborough Hospital","TOWN":"Marlborough","BEDS": 79},"geometry":{"type":"Point","coordinates":[-71.554733135583191,42.355303971900391]}},
{"type":"Feature","properties":{"NAME":"Massachusetts Eye and Ear Infirmary","SHORTNAME":"Massachusetts Eye and Ear Infirmary","TOWN":"Boston","BEDS": 41},"geometry":{"type":"Point","coordinates":[-71.070302069279876,42.362774402721556]}},
{"type":"Feature","properties":{"NAME":"Shriners Hospital For Children - Boston","SHORTNAME":"Shriners Boston","TOWN":"Boston","BEDS": 30},"geometry":{"type":"Point","coordinates":[-71.06645059319797,42.363088674178151]}},
{"type":"Feature","properties":{"NAME":"Massachusetts General Hospital","SHORTNAME":"Massachusetts General Hospital","TOWN":"Boston","BEDS": 1035},"geometry":{"type":"Point","coordinates":[-71.068772104126793,42.36320638537201]}},
{"type":"Feature","properties":{"NAME":"Mount Auburn Hospital","SHORTNAME":"Mount Auburn Hospital","TOWN":"Cambridge","BEDS": 217},"geometry":{"type":"Point","coordinates":[-71.134237731536942,42.373894410361309]}},
{"type":"Feature","properties":{"NAME":"CHA Cambridge Hospital","SHORTNAME":"Cambridge Hospital","TOWN":"Cambridge","BEDS": 189},"geometry":{"type":"Point","coordinates":[-71.104325770809723,42.374736409207436]}},
{"type":"Feature","properties":{"NAME":"CHA Everett Hospital","SHORTNAME":"Everett Hospital","TOWN":"Everett","BEDS": 162},"geometry":{"type":"Point","coordinates":[-71.039749694068803,42.40932831657102]}},
{"type":"Feature","properties":{"NAME":"Lawrence Memorial Hospital of Medford","SHORTNAME":"Lawrence Memorial Hospital of Medford","TOWN":"Medford","BEDS": 98},"geometry":{"type":"Point","coordinates":[-71.111497349292208,42.425969438694402]}},
{"type":"Feature","properties":{"NAME":"Emerson Hospital","SHORTNAME":"Emerson Hospital","TOWN":"Concord","BEDS": 150},"geometry":{"type":"Point","coordinates":[-71.375983588227129,42.451598916770706]}},
{"type":"Feature","properties":{"NAME":"Melrose-Wakefield Hospital","SHORTNAME":"Melrose-Wakefield Hospital","TOWN":"Melrose","BEDS": 174},"geometry":{"type":"Point","coordinates":[-71.061108246918408,42.460221791175222]}},
{"type":"Feature","properties":{"NAME":"Winchester Hospital","SHORTNAME":"Winchester Hospital","TOWN":"Winchester","BEDS": 189},"geometry":{"type":"Point","coordinates":[-71.122785207313626,42.465974585719181]}},
{"type":"Feature","properties":{"NAME":"Berkshire Medical Center","SHORTNAME":"Berkshire Medical Center","TOWN":"Pittsfield","BEDS": 298},"geometry":{"type":"Point","coordinates":[-73.249727258126953,42.459610953980956]}},
{"type":"Feature","properties":{"NAME":"Lahey Hospital & Medical Center - Burlington","SHORTNAME":"Lahey Hospital & Medical Center","TOWN":"Burlington","BEDS": 335},"geometry":{"type":"Point","coordinates":[-71.205566881115402,42.484892625051835]}},
{"type":"Feature","properties":{"NAME":"North Shore Medical Center - Union Hospital","SHORTNAME":"Union Hospital","TOWN":"Lynn","BEDS": 128},"geometry":{"type":"Point","coordinates":[-70.97973220634286,42.501930602102419]}},
{"type":"Feature","properties":{"NAME":"North Shore Medical Center - Salem Hospital","SHORTNAME":"Salem Hospital","TOWN":"Salem","BEDS": 268},"geometry":{"type":"Point","coordinates":[-70.906658781489682,42.51106625354867]}},
{"type":"Feature","properties":{"NAME":"Lahey Medical Center - Peabody","SHORTNAME":"Lahey Medical Center","TOWN":"Peabody","BEDS": 10},"geometry":{"type":"Point","coordinates":[-70.946714364351763,42.537432829608989]}},
{"type":"Feature","properties":{"NAME":"UMass Memorial HealthAlliance-Clinton Hospital Leominster","SHORTNAME":"HealthAlliance Hospital - Leominster Campus","TOWN":"Leominster","BEDS": 122},"geometry":{"type":"Point","coordinates":[-71.762145015452589,42.540657569720523]}},
{"type":"Feature","properties":{"NAME":"Steward Nashoba Valley Medical Center","SHORTNAME":"Nashoba Valley Medical Center","TOWN":"Ayer","BEDS": 77},"geometry":{"type":"Point","coordinates":[-71.573989039672213,42.577502021126193]}},
{"type":"Feature","properties":{"NAME":"Heywood Hospital","SHORTNAME":"Heywood Memorial Hospital","TOWN":"Gardner","BEDS": 134},"geometry":{"type":"Point","coordinates":[-71.987085672347078,42.586364973952783]}},
{"type":"Feature","properties":{"NAME":"Athol Memorial Hospital","SHORTNAME":"Athol Hospital","TOWN":"Athol","BEDS": 25},"geometry":{"type":"Point","coordinates":[-72.208872028710772,42.585414852889073]}},
{"type":"Feature","properties":{"NAME":"Baystate Franklin Medical Center","SHORTNAME":"Baystate Franklin Medical Center","TOWN":"Greenfield","BEDS": 89},"geometry":{"type":"Point","coordinates":[-72.592291057891401,42.595892201908867]}},
{"type":"Feature","properties":{"NAME":"Northeast Hospital - Addison Gilbert Campus","SHORTNAME":"Addison Gilbert Hospital","TOWN":"Gloucester","BEDS": 79},"geometry":{"type":"Point","coordinates":[-70.680654545127311,42.625203478953281]}},
{"type":"Feature","properties":{"NAME":"Lowell General Hospital - Saints Campus","SHORTNAME":"Lowell General Hospital - Saints Campus","TOWN":"Lowell","BEDS": 157},"geometry":{"type":"Point","coordinates":[-71.301189509325283,42.645699411051574]}},
{"type":"Feature","properties":{"NAME":"Lowell General Hospital","SHORTNAME":"Lowell General Hospital","TOWN":"Lowell","BEDS": 239},"geometry":{"type":"Point","coordinates":[-71.341758525754315,42.647464784701988]}},
{"type":"Feature","properties":{"NAME":"Nantucket Cottage Hospital","SHORTNAME":"Nantucket Cottage Hospital","TOWN":"Nantucket","BEDS": 19},"geometry":{"type":"Point","coordinates":[-70.100851165037369,41.275279603378038]}},
{"type":"Feature","properties":{"NAME":"Martha's Vineyard Hospital","SHORTNAME":"Martha's Vineyard Hospital","TOWN":"Oak Bluffs","BEDS": 25},"geometry":{"type":"Point","coordinates":[-70.579603776078216,41.460455479504986]}},
{"type":"Feature","properties":{"NAME":"Falmouth Hospital","SHORTNAME":"Falmouth Hospital","TOWN":"Falmouth","BEDS": 95},"geometry":{"type":"Point","coordinates":[-70.622665818873912,41.564267786775162]}},
{"type":"Feature","properties":{"NAME":"Southcoast Health - St. Luke's Hospital","SHORTNAME":"St. Luke's Hospital","TOWN":"New Bedford","BEDS": 391},"geometry":{"type":"Point","coordinates":[-70.939234380104537,41.627811620627021]}},
{"type":"Feature","properties":{"NAME":"Cape Cod Hospital","SHORTNAME":"Cape Cod Hospital","TOWN":"Hyannis","BEDS": 252},"geometry":{"type":"Point","coordinates":[-70.273303727796787,41.653209911721987]}},
{"type":"Feature","properties":{"NAME":"Steward Saint Anne's Hospital","SHORTNAME":"Saint Anne's Hospital","TOWN":"Fall River","BEDS": 185},"geometry":{"type":"Point","coordinates":[-71.163708657631929,41.692518646836966]}},
{"type":"Feature","properties":{"NAME":"Southcoast Health - Charlton Memorial Hospital","SHORTNAME":"Charlton Memorial Hospital","TOWN":"Fall River","BEDS": 328},"geometry":{"type":"Point","coordinates":[-71.146442940758291,41.709924761233076]}},
{"type":"Feature","properties":{"NAME":"Southcoast Health - Tobey Hospital","SHORTNAME":"Tobey Hospital","TOWN":"Wareham","BEDS": 74},"geometry":{"type":"Point","coordinates":[-70.714144850692435,41.756113373744867]}},
{"type":"Feature","properties":{"NAME":"Steward Morton Hospital","SHORTNAME":"Morton Hospital","TOWN":"Taunton","BEDS": 125},"geometry":{"type":"Point","coordinates":[-71.094407073597139,41.906180244848038]}},
{"type":"Feature","properties":{"NAME":"Sturdy Memorial Hospital","SHORTNAME":"Sturdy Memorial Hospital","TOWN":"Attleboro","BEDS": 132},"geometry":{"type":"Point","coordinates":[-71.274934277301654,41.942073222600655]}},
{"type":"Feature","properties":{"NAME":"Beth Israel Deaconess Hospital - Plymouth","SHORTNAME":"Beth Israel Plymouth","TOWN":"Plymouth","BEDS": 160},"geometry":{"type":"Point","coordinates":[-70.645282211677284,41.9429908839126]}},
{"type":"Feature","properties":{"NAME":"Harrington Memorial Hospital","SHORTNAME":"Harrington Memorial Hospital","TOWN":"Southbridge","BEDS": 114},"geometry":{"type":"Point","coordinates":[-72.042024862719288,42.078537919726159]}},
{"type":"Feature","properties":{"NAME":"Signature Healthcare Brockton Hospital","SHORTNAME":"Brockton Hospital","TOWN":"Brockton","BEDS": 197},"geometry":{"type":"Point","coordinates":[-70.991635434502939,42.087756695176594]}},
{"type":"Feature","properties":{"NAME":"Steward Good Samaritan Medical Center","SHORTNAME":"Good Samaritan Medical Center","TOWN":"Brockton","BEDS": 224},"geometry":{"type":"Point","coordinates":[-71.061711765557348,42.09772951025186]}},
{"type":"Feature","properties":{"NAME":"Mercy Medical Center","SHORTNAME":"Mercy Medical Center","TOWN":"Springfield","BEDS": 229},"geometry":{"type":"Point","coordinates":[-72.593680593884883,42.115277456165217]}},
{"type":"Feature","properties":{"NAME":"Baystate Noble Hospital","SHORTNAME":"Baystate Noble Hospital","TOWN":"Westfield","BEDS": 97},"geometry":{"type":"Point","coordinates":[-72.759758869836261,42.118025060188899]}},
{"type":"Feature","properties":{"NAME":"Shriners Hospital For Children - Springfield","SHORTNAME":"Shriners Springfield","TOWN":"Springfield","BEDS": 40},"geometry":{"type":"Point","coordinates":[-72.592747492171313,42.121220336435428]}},
{"type":"Feature","properties":{"NAME":"Baystate Medical Center","SHORTNAME":"Baystate Medical Center","TOWN":"Springfield","BEDS": 710},"geometry":{"type":"Point","coordinates":[-72.603147883304644,42.122104084028507]}},
{"type":"Feature","properties":{"NAME":"Milford Regional Medical Center","SHORTNAME":"Milford Regional Medical Center","TOWN":"Milford","BEDS": 145},"geometry":{"type":"Point","coordinates":[-71.528695562463554,42.133187134799932]}},
{"type":"Feature","properties":{"NAME":"Baystate Wing Hospital And Medical Centers","SHORTNAME":"Baystate Wing Hospital","TOWN":"Palmer","BEDS": 74},"geometry":{"type":"Point","coordinates":[-72.341727644228371,42.169705539563658]}},
{"type":"Feature","properties":{"NAME":"South Shore Hospital","SHORTNAME":"South Shore Hospital","TOWN":"Weymouth","BEDS": 370},"geometry":{"type":"Point","coordinates":[-70.954206055560931,42.17572455251824]}},
{"type":"Feature","properties":{"NAME":"Steward Norwood Hospital","SHORTNAME":"Norwood Hospital","TOWN":"Norwood","BEDS": 215},"geometry":{"type":"Point","coordinates":[-71.202060731962248,42.188579592319861]}},
{"type":"Feature","properties":{"NAME":"Holyoke Medical Center","SHORTNAME":"Holyoke Medical Center","TOWN":"Holyoke","BEDS": 198},"geometry":{"type":"Point","coordinates":[-72.627472959979784,42.200321061829769]}},
{"type":"Feature","properties":{"NAME":"Fairview Hospital","SHORTNAME":"Fairview Hospital","TOWN":"Great Barrington","BEDS": 25},"geometry":{"type":"Point","coordinates":[-73.371916726083654,42.191090748403475]}},
{"type":"Feature","properties":{"NAME":"Beth Israel Deaconess Hospital - Milton","SHORTNAME":"Beth Israel Milton","TOWN":"Milton","BEDS": 88},"geometry":{"type":"Point","coordinates":[-71.077645172333547,42.251530447622542]}},
{"type":"Feature","properties":{"NAME":"Saint Vincent Hospital","SHORTNAME":"Saint Vincent Hospital","TOWN":"Worcester","BEDS": 283},"geometry":{"type":"Point","coordinates":[-71.796999693615916,42.264649703732019]}},
{"type":"Feature","properties":{"NAME":"UMass Memorial Medical Center - Memorial Campus","SHORTNAME":"UMass Memorial Campus","TOWN":"Worcester","BEDS": 303},"geometry":{"type":"Point","coordinates":[-71.792250241003174,42.272941640109487]}},
{"type":"Feature","properties":{"NAME":"Beth Israel Deaconess Hospital - Needham","SHORTNAME":"Beth Israel Needham","TOWN":"Needham","BEDS": 58},"geometry":{"type":"Point","coordinates":[-71.23665236730433,42.277175338023945]}},
{"type":"Feature","properties":{"NAME":"UMass Memorial Medical Center - University Campus","SHORTNAME":"UMass University Campus","TOWN":"Worcester","BEDS": 431},"geometry":{"type":"Point","coordinates":[-71.761671515846317,42.27756489981666]}},
{"type":"Feature","properties":{"NAME":"Steward Carney Hospital","SHORTNAME":"Carney Hospital","TOWN":"Boston","BEDS": 159},"geometry":{"type":"Point","coordinates":[-71.066050588901746,42.278038657832823]}},
{"type":"Feature","properties":{"NAME":"Metrowest Medical Center-Leonard Morse Hospital","SHORTNAME":"Leonard Morse Hospital","TOWN":"Natick","BEDS": 160},"geometry":{"type":"Point","coordinates":[-71.335375985571801,42.280341562627704]}},
{"type":"Feature","properties":{"NAME":"Metrowest Medical Center-Framingham Union Hospital","SHORTNAME":"Framingham Union Hospital","TOWN":"Framingham","BEDS": 147},"geometry":{"type":"Point","coordinates":[-71.41860522711184,42.284332421866729]}},
{"type":"Feature","properties":{"NAME":"Brigham and Women's Faulkner Hospital","SHORTNAME":"Brigham and Women's Faulkner Hospital","TOWN":"Boston","BEDS": 162},"geometry":{"type":"Point","coordinates":[-71.128174618449137,42.301443960051721]}},
{"type":"Feature","properties":{"NAME":"New England Baptist Hospital","SHORTNAME":"New England Baptist Hospital","TOWN":"Boston","BEDS": 118},"geometry":{"type":"Point","coordinates":[-71.106730604168433,42.329748665740716]}},
{"type":"Feature","properties":{"NAME":"Newton-Wellesley Hospital","SHORTNAME":"Newton-Wellesley Hospital","TOWN":"Newton","BEDS": 265},"geometry":{"type":"Point","coordinates":[-71.24576849785042,42.330759449243907]}},
{"type":"Feature","properties":{"NAME":"Boston Medical Center - Menino Pavilion","SHORTNAME":"BMC - Menino Pavilion","TOWN":"Boston","BEDS": 288},"geometry":{"type":"Point","coordinates":[-71.072957669040605,42.334722477231779]}},
{"type":"Feature","properties":{"NAME":"Cooley Dickinson Hospital","SHORTNAME":"Cooley Dickinson Hospital","TOWN":"Northampton","BEDS": 140},"geometry":{"type":"Point","coordinates":[-72.653728588690171,42.330429292181257]}},
{"type":"Feature","properties":{"NAME":"Brigham and Women's Hospital","SHORTNAME":"Brigham and Women's Hospital","TOWN":"Boston","BEDS": 763},"geometry":{"type":"Point","coordinates":[-71.107481073807904,42.336115156206006]}},
{"type":"Feature","properties":{"NAME":"Boston Medical Center - Newton Pavilion","SHORTNAME":"BMC - Newton Pavilion","TOWN":"Boston","BEDS": 214},"geometry":{"type":"Point","coordinates":[-71.070882032241627,42.336862486135487]}},
{"type":"Feature","properties":{"NAME":"Boston Children's Hospital","SHORTNAME":"Boston Children's Hospital","TOWN":"Boston","BEDS": 404},"geometry":{"type":"Point","coordinates":[-71.104882855874322,42.33747447447724]}},
{"type":"Feature","properties":{"NAME":"Dana-Farber Cancer Institute","SHORTNAME":"Dana-Farber Cancer Institute","TOWN":"Boston","BEDS": 0},"geometry":{"type":"Point","coordinates":[-71.108279775177991,42.33760208973785]}},
{"type":"Feature","properties":{"NAME":"Beth Israel Deaconess Medical Center West","SHORTNAME":"BIDMC West","TOWN":"Boston","BEDS": 405},"geometry":{"type":"Point","coordinates":[-71.109080606031156,42.337808666913801]}},
{"type":"Feature","properties":{"NAME":"UMass Memorial HealthAlliance-Clinton Hospital","SHORTNAME":"HealthAlliance-Clinton Hospital","TOWN":"Clinton","BEDS": 41},"geometry":{"type":"Point","coordinates":[-71.69247170804735,42.427386031756924]}},
{"type":"Feature","properties":{"NAME":"Northeast Hospital - Beverly Hospital Campus","SHORTNAME":"Beverly Hospital","TOWN":"Beverly","BEDS": 223},"geometry":{"type":"Point","coordinates":[-70.8754624808915,42.563908771224973]}},
{"type":"Feature","properties":{"NAME":"Lawrence General Hospital","SHORTNAME":"Lawrence General Hospital","TOWN":"Lawrence","BEDS": 189},"geometry":{"type":"Point","coordinates":[-71.149261092782822,42.709633601688111]}},
{"type":"Feature","properties":{"NAME":"Steward Holy Family Hospital - Methuen","SHORTNAME":"Holy Family Hospital-Methuen","TOWN":"Methuen","BEDS": 223},"geometry":{"type":"Point","coordinates":[-71.168393792660737,42.727778202491457]}},
{"type":"Feature","properties":{"NAME":"Steward Holy Family Hospital - Haverhill","SHORTNAME":"Holy Family Hospital-Haverhill","TOWN":"Haverhill","BEDS": 124},"geometry":{"type":"Point","coordinates":[-71.045054404046368,42.765143830010544]}},
{"type":"Feature","properties":{"NAME":"Anna Jaques Hospital","SHORTNAME":"Anna Jaques Hospital","TOWN":"Newburyport","BEDS": 111},"geometry":{"type":"Point","coordinates":[-70.891079307572468,42.814377292328061]}},

{"type":"Feature","properties":{"IDNUMBER":"2202","FAC_NAME":"AdCare Hospital of Worcester","ADDRESS":"107 Lincoln Street","TOWN":"Worcester","GEOG_TOWN":"WORCESTER","ZIPCODE":"01605","CHIAREGION":"Central Massachusetts","TELEPHONE":"(508) 799-9000","COHORT":"Specialty Hospital","HOSPSYSTEM":"AdCare Health Systems","TAXSTATUS":"For profit","BEDS":114,"MADID":1366126,"EMSREGION":2},"geometry":{"type":"Point","coordinates":[-71.795007115714554,42.276381459759612]}},
{"type":"Feature","properties":{"IDNUMBER":"2290","FAC_NAME":"Hebrew Rehabilitation Center","ADDRESS":"1200 Centre Street","TOWN":"Boston","GEOG_TOWN":"BOSTON","ZIPCODE":"02131","CHIAREGION":"Metro Boston","TELEPHONE":"(617) 363-8000","COHORT":"Specialty Hospital","HOSPSYSTEM":"Hebrew SeniorLife","TAXSTATUS":"Non-profit","BEDS":717,"MADID":35027533,"EMSREGION":4},"geometry":{"type":"Point","coordinates":[-71.130734461059475,42.296689743736344]}},
{"type":"Feature","properties":{"IDNUMBER":"2837","FAC_NAME":"Bournewood Hospital","ADDRESS":"300 South Street","TOWN":"Brookline","GEOG_TOWN":"BROOKLINE","ZIPCODE":"02167","CHIAREGION":"Metro Boston","TELEPHONE":"(617) 469-0300","COHORT":"Psychiatric Hospital","HOSPSYSTEM":"AtitaCare","TAXSTATUS":"For profit","BEDS":90,"MADID":3320480,"EMSREGION":4},"geometry":{"type":"Point","coordinates":[-71.149288375752917,42.298584548062706]}},
{"type":"Feature","properties":{"IDNUMBER":"2821","FAC_NAME":"Lemuel Shattuck Hospital","ADDRESS":"170 Morton Street","TOWN":"Boston","GEOG_TOWN":"BOSTON","ZIPCODE":"02130","CHIAREGION":"Metro Boston","TELEPHONE":"(617) 522-8110","COHORT":"State Multi-Specialty Hospital","HOSPSYSTEM":"Bureau of Hospitals","TAXSTATUS":"Public","BEDS":255,"MADID":35341854,"EMSREGION":4},"geometry":{"type":"Point","coordinates":[-71.101939228355391,42.299604087993949]}},
{"type":"Feature","properties":{"IDNUMBER":"2836","FAC_NAME":"Arbour Hospital","ADDRESS":"49 Robinwood Avenue","TOWN":"Boston","GEOG_TOWN":"BOSTON","ZIPCODE":"02130","CHIAREGION":"Metro Boston","TELEPHONE":"(617) 522-4400","COHORT":"Psychiatric Hospital","HOSPSYSTEM":"Universal Health Service","TAXSTATUS":"For profit","BEDS":136,"MADID":35117474,"EMSREGION":4},"geometry":{"type":"Point","coordinates":[-71.112250605370974,42.315778663507352]}},
{"type":"Feature","properties":{"IDNUMBER":"2221","FAC_NAME":"Franciscan Childrenâ€™s","ADDRESS":"30 Warren Street","TOWN":"Boston","GEOG_TOWN":"BOSTON","ZIPCODE":"02135","CHIAREGION":"Metro Boston","TELEPHONE":"(617) 254-3800","COHORT":"Specialty Hospital","HOSPSYSTEM":"<Null>","TAXSTATUS":"Non-profit","BEDS":112,"MADID":35143241,"EMSREGION":4},"geometry":{"type":"Point","coordinates":[-71.083116336551541,42.329800470532149]}},
{"type":"Feature","properties":{"IDNUMBER":"2D9E","FAC_NAME":"Dr. Solomon Carter Fuller Mental Health Center","ADDRESS":"85 East Newton Street","TOWN":"Boston","GEOG_TOWN":"BOSTON","ZIPCODE":"02118","CHIAREGION":"Metro Boston","TELEPHONE":"(617) 626-8700","COHORT":"Psychiatric Hospital","HOSPSYSTEM":"Mass. Dept. of Mental Health","TAXSTATUS":"Public","BEDS":60,"MADID":35157229,"EMSREGION":4},"geometry":{"type":"Point","coordinates":[-71.070970261449617,42.336396318045843]}},
{"type":"Feature","properties":{"IDNUMBER":"2327","FAC_NAME":"HRI Hospital","ADDRESS":"227 Babcock Street","TOWN":"Brookline","GEOG_TOWN":"BROOKLINE","ZIPCODE":"02146","CHIAREGION":"Metro Boston","TELEPHONE":"(617) 731-3200","COHORT":"Psychiatric Hospital","HOSPSYSTEM":"Universal Health Service","TAXSTATUS":"For profit","BEDS":62,"MADID":3312013,"EMSREGION":4},"geometry":{"type":"Point","coordinates":[-71.121165074648545,42.350771474262508]}},
{"type":"Feature","properties":{"IDNUMBER":"2ADW","FAC_NAME":"Walden Behavioral Care","ADDRESS":"51 Sawyer Road","TOWN":"Waltham","GEOG_TOWN":"WALTHAM","ZIPCODE":"02453","CHIAREGION":"Metro Boston","TELEPHONE":"(781) 647-6700","COHORT":"Psychiatric Hospital","HOSPSYSTEM":"Walden Behavioral Care INC","TAXSTATUS":"For profit","BEDS":47,"MADID":2836660,"EMSREGION":4},"geometry":{"type":"Point","coordinates":[-71.249453761379129,42.368997098126343]}},
{"type":"Feature","properties":{"IDNUMBER":"2102","FAC_NAME":"Spaulding Hospital for Continuing Medical Care Cambridge","ADDRESS":"1575 Cambridge Street","TOWN":"Cambridge","GEOG_TOWN":"CAMBRIDGE","ZIPCODE":"02138","CHIAREGION":"Metro Boston","TELEPHONE":"(617) 876-4344","COHORT":"Chronic Care Hospital","HOSPSYSTEM":"Partners HealthCare System","TAXSTATUS":"Non-profit","BEDS":180,"MADID":3628145,"EMSREGION":4},"geometry":{"type":"Point","coordinates":[-71.107213156460602,42.375541601484414]}},
{"type":"Feature","properties":{"IDNUMBER":"2321","FAC_NAME":"Spaulding Rehabilitation Hospital Boston","ADDRESS":"300 First Avenue","TOWN":"Boston","GEOG_TOWN":"BOSTON","ZIPCODE":"02129","CHIAREGION":"Metro Boston","TELEPHONE":"(617) 952-5000","COHORT":"Rehabilitation Hospital","HOSPSYSTEM":"Partners HealthCare System","TAXSTATUS":"Non-profit","BEDS":132,"MADID":35341261,"EMSREGION":4},"geometry":{"type":"Point","coordinates":[-71.049223615498036,42.37857251778685]}},
{"type":"Feature","properties":{"IDNUMBER":"2920","FAC_NAME":"McLean Hospital","ADDRESS":"115 Mill Street","TOWN":"Belmont","GEOG_TOWN":"BELMONT","ZIPCODE":"02478","CHIAREGION":"Metro Boston","TELEPHONE":"(800) 333-0338","COHORT":"Psychiatric Hospital","HOSPSYSTEM":"Partners HealthCare System","TAXSTATUS":"Non-profit","BEDS":218,"MADID":4262474,"EMSREGION":4},"geometry":{"type":"Point","coordinates":[-71.194762364562465,42.396038805861458]}},
{"type":"Feature","properties":{"IDNUMBER":"2329","FAC_NAME":"HealthSouth New England Rehabilitation Hospital","ADDRESS":"2 Rehabilitation Way","TOWN":"Woburn","GEOG_TOWN":"WOBURN","ZIPCODE":"01801","CHIAREGION":"Northeastern Massachusetts","TELEPHONE":"(781) 935-5050","COHORT":"Rehabilitation Hospital","HOSPSYSTEM":"Encompass Health","TAXSTATUS":"For profit","BEDS":168,"MADID":2984582,"EMSREGION":4},"geometry":{"type":"Point","coordinates":[-71.161971749657141,42.463489882741278]}},
{"type":"Feature","properties":{"IDNUMBER":"2M5H","FAC_NAME":"BayRidge Hospital","ADDRESS":"60 Granite Street","TOWN":"Lynn","GEOG_TOWN":"LYNN","ZIPCODE":"01904","CHIAREGION":"Northeastern Massachusetts","TELEPHONE":"(781) 599-9200","COHORT":"Psychiatric Hospital","HOSPSYSTEM":"Lahey Health","TAXSTATUS":"Non-profit","BEDS":62,"MADID":3787838,"EMSREGION":3},"geometry":{"type":"Point","coordinates":[-70.956894308056704,42.471575293041646]}},
{"type":"Feature","properties":{"IDNUMBER":"2AY6","FAC_NAME":"TaraVista Behavioral Health Center","ADDRESS":"85 Patton Road","TOWN":"Devens","GEOG_TOWN":"HARVARD","ZIPCODE":"01434","CHIAREGION":"Northeastern Massachusetts","TELEPHONE":"(978) 615-5200","COHORT":"Psychiatric Hospital","HOSPSYSTEM":"Health Partners New England","TAXSTATUS":"For profit","BEDS":108,"MADID":4245359,"EMSREGION":2},"geometry":{"type":"Point","coordinates":[-71.614785136104558,42.53043427751345]}},
{"type":"Feature","properties":{"IDNUMBER":"2H97","FAC_NAME":"HealthSouth New England Rehabilitation Hospital at Beverly","ADDRESS":"800 Cummings Center","TOWN":"Beverly","GEOG_TOWN":"BEVERLY","ZIPCODE":"01915","CHIAREGION":"Northeastern Massachusetts","TELEPHONE":"(978) 720-7260","COHORT":"Rehabilitation Hospital","HOSPSYSTEM":"HealthSouth","TAXSTATUS":"For profit","BEDS":20,"MADID":4188571,"EMSREGION":3},"geometry":{"type":"Point","coordinates":[-70.887374401527694,42.560988342250866]}},
{"type":"Feature","properties":{"IDNUMBER":"2825","FAC_NAME":"Tewksbury Hospital","ADDRESS":"365 East Street","TOWN":"Tewksbury","GEOG_TOWN":"TEWKSBURY","ZIPCODE":"01876","CHIAREGION":"Northeastern Massachusetts","TELEPHONE":"(978) 851-7321","COHORT":"State Multi-Specialty Hospital","HOSPSYSTEM":"Bureau of Hospitals","TAXSTATUS":"Public","BEDS":370,"MADID":2045794,"EMSREGION":3},"geometry":{"type":"Point","coordinates":[-71.21825994762105,42.608234969603352]}},
{"type":"Feature","properties":{"IDNUMBER":"2WE6","FAC_NAME":"HealthSouth New England Rehabilitation Hospital at Lowell","ADDRESS":"1071 Varnum Avenue","TOWN":"Lowell","GEOG_TOWN":"LOWELL","ZIPCODE":"01854","CHIAREGION":"Northeastern Massachusetts","TELEPHONE":"(978) 446-1862","COHORT":"Rehabilitation Hospital","HOSPSYSTEM":"HealthSouth","TAXSTATUS":"For profit","BEDS":22,"MADID":1996913,"EMSREGION":3},"geometry":{"type":"Point","coordinates":[-71.366783771014667,42.645442164834726]}},
{"type":"Feature","properties":{"IDNUMBER":"2292","FAC_NAME":"Whittier Rehabilitation Hospital - Bradford","ADDRESS":"145 Ward Hill Avenue","TOWN":"Bradford","GEOG_TOWN":"HAVERHILL","ZIPCODE":"01835","CHIAREGION":"Northeastern Massachusetts","TELEPHONE":"(978) 372-8000","COHORT":"Rehabilitation Hospital","HOSPSYSTEM":"Whittier Health System","TAXSTATUS":"For profit","BEDS":60,"MADID":2224501,"EMSREGION":3},"geometry":{"type":"Point","coordinates":[-71.118967333370975,42.761659922875403]}},
{"type":"Feature","properties":{"IDNUMBER":"2XOB","FAC_NAME":"The Whittier Pavilion","ADDRESS":"76 Summer Street","TOWN":"Haverhill","GEOG_TOWN":"HAVERHILL","ZIPCODE":"01830","CHIAREGION":"Northeastern Massachusetts","TELEPHONE":"(978) 373-8222","COHORT":"Psychiatric Hospital","HOSPSYSTEM":"Whittier Health System","TAXSTATUS":"For profit","BEDS":71,"MADID":2226267,"EMSREGION":3},"geometry":{"type":"Point","coordinates":[-71.073211229632676,42.778589349336023]}},
{"type":"Feature","properties":{"IDNUMBER":"2MFU","FAC_NAME":"Amesbury Psychological Center","ADDRESS":"24 Morrill Place","TOWN":"Amesbury","GEOG_TOWN":"AMESBURY","ZIPCODE":"01913","CHIAREGION":"Northeastern Massachusetts","TELEPHONE":"(978) 388-5700","COHORT":"Psychiatric Hospital","HOSPSYSTEM":"<Null>","TAXSTATUS":"For profit","BEDS":12,"MADID":98130,"EMSREGION":3},"geometry":{"type":"Point","coordinates":[-70.933545345423113,42.848478402430437]}},
{"type":"Feature","properties":{"IDNUMBER":null,"FAC_NAME":"Worcester Recovery Center and Hospital","ADDRESS":"309 Belmont Street","TOWN":"Worcester","GEOG_TOWN":"WORCESTER","ZIPCODE":"01604","CHIAREGION":"Central Massachusetts","TELEPHONE":"(508) 368-4000","COHORT":"Psychiatric Hospital","HOSPSYSTEM":"Mass. Dept. of Mental Health","TAXSTATUS":"Public","BEDS":320,"MADID":1379102,"EMSREGION":2},"geometry":{"type":"Point","coordinates":[-71.76880616772165,42.279644822171733]}},
{"type":"Feature","properties":{"IDNUMBER":"2J6E","FAC_NAME":"Southcoast Behavioral Health","ADDRESS":"581 Faunce Corner Road","TOWN":"Dartmouth","GEOG_TOWN":"DARTMOUTH","ZIPCODE":"02747","CHIAREGION":"Southcoast","TELEPHONE":"(877) 560-7275","COHORT":"Psychiatric Hospital","HOSPSYSTEM":"Acadia Healthcare","TAXSTATUS":"For profit","BEDS":120,"MADID":2781855,"EMSREGION":5},"geometry":{"type":"Point","coordinates":[-70.987089571761672,41.673564060585491]}},
{"type":"Feature","properties":{"IDNUMBER":"2842","FAC_NAME":"Pocasset Mental Health Center","ADDRESS":"830 County Road","TOWN":"Bourne","GEOG_TOWN":"BOURNE","ZIPCODE":"02559","CHIAREGION":"Cape and Islands","TELEPHONE":"(508) 564-9700","COHORT":"Psychiatric Hospital","HOSPSYSTEM":"Mass. Dept. of Mental Health","TAXSTATUS":"Public","BEDS":24,"MADID":1028,"EMSREGION":5},"geometry":{"type":"Point","coordinates":[-70.602398308426942,41.688369556515745]}},
{"type":"Feature","properties":{"IDNUMBER":"2C7R","FAC_NAME":"Corrigan Mental Health Center","ADDRESS":"49 Hillside Street","TOWN":"Fall River","GEOG_TOWN":"FALL RIVER","ZIPCODE":"02720","CHIAREGION":"Southcoast","TELEPHONE":"(508) 235-7200","COHORT":"Psychiatric Hospital","HOSPSYSTEM":"Mass. Dept. of Mental Health","TAXSTATUS":"Public","BEDS":16,"MADID":3953580,"EMSREGION":5},"geometry":{"type":"Point","coordinates":[-71.145656708399883,41.707558840666152]}},
{"type":"Feature","properties":{"IDNUMBER":"2FXY","FAC_NAME":"Spaulding Rehabilitation Hospital Cape Cod","ADDRESS":"311 Service Road","TOWN":"Sandwich","GEOG_TOWN":"SANDWICH","ZIPCODE":"02537","CHIAREGION":"Cape and Islands","TELEPHONE":"(508) 833-4000","COHORT":"Rehabilitation Hospital","HOSPSYSTEM":"Partners HealthCare System","TAXSTATUS":"Non-profit","BEDS":60,"MADID":1896955,"EMSREGION":5},"geometry":{"type":"Point","coordinates":[-70.467889537641312,41.73283966123239]}},
{"type":"Feature","properties":{"IDNUMBER":"2224","FAC_NAME":"Vibra Hospital of Southeastern Massachusetts","ADDRESS":"4499 Acushnet Avenue","TOWN":"New Bedford","GEOG_TOWN":"NEW BEDFORD","ZIPCODE":"02745","CHIAREGION":"Southcoast","TELEPHONE":"(508) 731-8297","COHORT":"Rehabilitation Hospital","HOSPSYSTEM":"Vibra Healthcare","TAXSTATUS":"For profit","BEDS":90,"MADID":4063790,"EMSREGION":5},"geometry":{"type":"Point","coordinates":[-70.945613822952367,41.740460478608199]}},
{"type":"Feature","properties":{"IDNUMBER":"20ZH","FAC_NAME":"High Point Treatment Center","ADDRESS":"52 Oak Street","TOWN":"Middleborough","GEOG_TOWN":"MIDDLEBOROUGH","ZIPCODE":"02346","CHIAREGION":"Metro South","TELEPHONE":"(774) 213-8400","COHORT":"Psychiatric Hospital","HOSPSYSTEM":"Southeast Regional Network","TAXSTATUS":"Non-profit","BEDS":72,"MADID":2627810,"EMSREGION":5},"geometry":{"type":"Point","coordinates":[-70.914606813172711,41.894372889427025]}},
{"type":"Feature","properties":{"IDNUMBER":"24KZ","FAC_NAME":"McLean SouthEast","ADDRESS":"23 Isaac Street","TOWN":"Middleborough","GEOG_TOWN":"MIDDLEBOROUGH","ZIPCODE":"02346","CHIAREGION":"Metro South","TELEPHONE":"(774) 419-1000","COHORT":"Psychiatric Hospital","HOSPSYSTEM":"Partners HealthCare System","TAXSTATUS":"Non-profit","BEDS":30,"MADID":2623895,"EMSREGION":5},"geometry":{"type":"Point","coordinates":[-70.916335594002561,41.901525594624268]}},
{"type":"Feature","properties":{"IDNUMBER":"2815","FAC_NAME":"Taunton State Hospital","ADDRESS":"60 Hodges Avenue","TOWN":"Taunton","GEOG_TOWN":"TAUNTON","ZIPCODE":"02780","CHIAREGION":"Metro South","TELEPHONE":"(508) 977-3000","COHORT":"Psychiatric Hospital","HOSPSYSTEM":"Mass. Dept. of Mental Health","TAXSTATUS":"Public","BEDS":45,"MADID":2686702,"EMSREGION":5},"geometry":{"type":"Point","coordinates":[-71.102268649375958,41.912282815185812]}},
{"type":"Feature","properties":{"IDNUMBER":"2005","FAC_NAME":"Arbour-Fuller Hospital","ADDRESS":"200 May Street","TOWN":"Attleboro","GEOG_TOWN":"ATTLEBORO","ZIPCODE":"02703","CHIAREGION":"Metro West","TELEPHONE":"(508) 761-8500","COHORT":"Psychiatric Hospital","HOSPSYSTEM":"Universal Health Service","TAXSTATUS":"For profit","BEDS":102,"MADID":2953830,"EMSREGION":5},"geometry":{"type":"Point","coordinates":[-71.360572596643365,41.923856556136137]}},
{"type":"Feature","properties":{"IDNUMBER":"2KGH","FAC_NAME":"NORCAP Lodge","ADDRESS":"71 Walnut Street","TOWN":"Foxborough","GEOG_TOWN":"FOXBOROUGH","ZIPCODE":"02035","CHIAREGION":"Metro West","TELEPHONE":"(508) 453-1873","COHORT":"Rehabilitation Hospital","HOSPSYSTEM":"Steward Health Care","TAXSTATUS":"For profit","BEDS":43,"MADID":2493376,"EMSREGION":5},"geometry":{"type":"Point","coordinates":[-71.240898522799696,42.050043063538325]}},
{"type":"Feature","properties":{"IDNUMBER":"2032","FAC_NAME":"Pembroke Hospital","ADDRESS":"199 Oak Street","TOWN":"Pembroke","GEOG_TOWN":"PEMBROKE","ZIPCODE":"02359","CHIAREGION":"Metro South","TELEPHONE":"(781) 829-7000","COHORT":"Psychiatric Hospital","HOSPSYSTEM":"Universal Health Service","TAXSTATUS":"For profit","BEDS":120,"MADID":3125587,"EMSREGION":5},"geometry":{"type":"Point","coordinates":[-70.764272645081192,42.097372107093314]}},
{"type":"Feature","properties":{"IDNUMBER":"2282","FAC_NAME":"Curahealth Hospital Stoughton","ADDRESS":"909 Sumner Street","TOWN":"Stoughton","GEOG_TOWN":"STOUGHTON","ZIPCODE":"02072","CHIAREGION":"Metro South","TELEPHONE":"(781) 297-8200","COHORT":"Chronic Care Hospital","HOSPSYSTEM":"Curahealth","TAXSTATUS":"For profit","BEDS":88,"MADID":52834,"EMSREGION":5},"geometry":{"type":"Point","coordinates":[-71.082003258080007,42.100951587139363]}},
{"type":"Feature","properties":{"IDNUMBER":"2826","FAC_NAME":"Western Massachusetts Hospital","ADDRESS":"91 East Mountain Road","TOWN":"Westfield","GEOG_TOWN":"WESTFIELD","ZIPCODE":"01085","CHIAREGION":"Western Massachusetts","TELEPHONE":"(413) 562-4131","COHORT":"State Multi-Specialty Hospital","HOSPSYSTEM":"Bureau of Hospitals","TAXSTATUS":"Public","BEDS":100,"MADID":979435,"EMSREGION":1},"geometry":{"type":"Point","coordinates":[-72.700935381488179,42.111297547592891]}},
{"type":"Feature","properties":{"IDNUMBER":"2223","FAC_NAME":"Vibra Hospital of Western Massachusetts","ADDRESS":"1400 State Street","TOWN":"Springfield","GEOG_TOWN":"SPRINGFIELD","ZIPCODE":"01109","CHIAREGION":"Western Massachusetts","TELEPHONE":"(717) 467-4471","COHORT":"Chronic Care Hospital","HOSPSYSTEM":"Vibra Healthcare","TAXSTATUS":"For profit","BEDS":346,"MADID":600615,"EMSREGION":1},"geometry":{"type":"Point","coordinates":[-72.547660647495277,42.120895836626829]}},
{"type":"Feature","properties":{"IDNUMBER":"2250","FAC_NAME":"New England Sinai Hospital","ADDRESS":"150 York Street","TOWN":"Stoughton","GEOG_TOWN":"STOUGHTON","ZIPCODE":"02072","CHIAREGION":"Metro South","TELEPHONE":"(781) 344-0600","COHORT":"Chronic Care Hospital","HOSPSYSTEM":"Steward Health Care","TAXSTATUS":"For profit","BEDS":182,"MADID":49371,"EMSREGION":5},"geometry":{"type":"Point","coordinates":[-71.098763774520577,42.144622284639517]}},
{"type":"Feature","properties":{"IDNUMBER":"2912","FAC_NAME":"HealthSouth Rehabilitation Hospital of Western Massachusetts","ADDRESS":"222 State Street","TOWN":"Ludlow","GEOG_TOWN":"LUDLOW","ZIPCODE":"01056","CHIAREGION":"Western Massachusetts","TELEPHONE":"(413) 308-3300","COHORT":"Rehabilitation Hospital","HOSPSYSTEM":"Encompass Health","TAXSTATUS":"For profit","BEDS":53,"MADID":4212282,"EMSREGION":1},"geometry":{"type":"Point","coordinates":[-72.470869707350829,42.154839246252152]}},
{"type":"Feature","properties":{"IDNUMBER":"2150","FAC_NAME":"Providence Behavioral Health Hospital","ADDRESS":"1233 Main Street","TOWN":"Holyoke","GEOG_TOWN":"HOLYOKE","ZIPCODE":"01040","CHIAREGION":"Western Massachusetts","TELEPHONE":"(413) 536-5111","COHORT":"Psychiatric Hospital","HOSPSYSTEM":"Trinity Health Of New England","TAXSTATUS":"Non-profit","BEDS":131,"MADID":230166,"EMSREGION":1},"geometry":{"type":"Point","coordinates":[-72.63591344773657,42.166307786785737]}},
{"type":"Feature","properties":{"IDNUMBER":"2822","FAC_NAME":"Pappas Rehabilitation Hospital For Children","ADDRESS":"3 Randolph Street","TOWN":"Canton","GEOG_TOWN":"CANTON","ZIPCODE":"02021","CHIAREGION":"Metro West","TELEPHONE":"(781) 828-2440","COHORT":"State Multi-Specialty Hospital","HOSPSYSTEM":"Bureau of Hospitals","TAXSTATUS":"Public","BEDS":84,"MADID":2437839,"EMSREGION":4},"geometry":{"type":"Point","coordinates":[-71.125447144082145,42.174804782771751]}},
{"type":"Feature","properties":{"IDNUMBER":"2333","FAC_NAME":"HealthSouth Braintree Rehabilitation Hospital","ADDRESS":"250 Pond Street","TOWN":"Braintree","GEOG_TOWN":"BRAINTREE","ZIPCODE":"02184","CHIAREGION":"Metro South","TELEPHONE":"(781) 348-2500","COHORT":"Rehabilitation Hospital","HOSPSYSTEM":"Encompass Health","TAXSTATUS":"For profit","BEDS":187,"MADID":2399290,"EMSREGION":4},"geometry":{"type":"Point","coordinates":[-71.018705734256912,42.198086352684058]}},
{"type":"Feature","properties":{"IDNUMBER":"2IMK","FAC_NAME":"Vibra Hospital of Western Massachusetts - Central Campus","ADDRESS":"111 Huntoon Memorial Highway","TOWN":"Leicester","GEOG_TOWN":"LEICESTER","ZIPCODE":"01542","CHIAREGION":"Central Massachusetts","TELEPHONE":"(717) 954-0278","COHORT":"Chronic Care Hospital","HOSPSYSTEM":"Vibra Healthcare","TAXSTATUS":"For profit","BEDS":47,"MADID":1197022,"EMSREGION":2},"geometry":{"type":"Point","coordinates":[-71.898804229517637,42.201854602248062]}},
{"type":"Feature","properties":{"IDNUMBER":"2098","FAC_NAME":"Fairlawn Rehabilitation Hospital","ADDRESS":"189 May Street","TOWN":"Worcester","GEOG_TOWN":"WORCESTER","ZIPCODE":"01602","CHIAREGION":"Central Massachusetts","TELEPHONE":"(508) 791-6351","COHORT":"Rehabilitation Hospital","HOSPSYSTEM":"Encompass Health","TAXSTATUS":"For profit","BEDS":110,"MADID":1373588,"EMSREGION":2},"geometry":{"type":"Point","coordinates":[-71.835453180612092,42.259991395344827]}},
{"type":"Feature","properties":{"IDNUMBER":"2D85","FAC_NAME":"Hebrew Rehabilitation Center in Dedham","ADDRESS":"7000 Great Meadow Road","TOWN":"Dedham","GEOG_TOWN":"DEDHAM","ZIPCODE":"02026","CHIAREGION":"Metro Boston","TELEPHONE":"(781) 234-9700","COHORT":"Rehabilitation Hospital","HOSPSYSTEM":"Hebrew SeniorLife","TAXSTATUS":"Non-profit","BEDS":220,"MADID":2468099,"EMSREGION":4},"geometry":{"type":"Point","coordinates":[-71.195167672926402,42.266203649844044]}},
{"type":"Feature","properties":{"IDNUMBER":"293Q","FAC_NAME":"Whittier Rehabilitation Hospital - Westborough","ADDRESS":"150 Flanders Road","TOWN":"Westborough","GEOG_TOWN":"WESTBOROUGH","ZIPCODE":"01581","CHIAREGION":"Central Massachusetts","TELEPHONE":"(508) 870-2222","COHORT":"Rehabilitation Hospital","HOSPSYSTEM":"Whittier Health System","TAXSTATUS":"For profit","BEDS":88,"MADID":1187318,"EMSREGION":2},"geometry":{"type":"Point","coordinates":[-71.56786548080845,42.276462541868462]}}

]
}
