{
"type": "FeatureCollection",
"name": "mi_hospitals",
"crs": { "type": "name", "properties": { "name": "urn:ogc:def:crs:OGC:1.3:CRS84" } },
"features": [
{ "type": "Feature", "properties": { "NAME": "MIDMICHIGAN MEDICAL CENTER-GLADWIN", "CITY": "GLADWIN", "BEDS": 25 }, "geometry": { "type": "Point", "coordinates": [ -84.493888, 43.975944 ] } },
{ "type": "Feature", "properties": { "NAME": "MERCY HEALTH PARTNERS, LAKESHORE CAMPUS", "CITY": "SHELBY", "BEDS": 24 }, "geometry": { "type": "Point", "coordinates": [ -86.364686, 43.606604 ] } },
{ "type": "Feature", "properties": { "NAME": "HELEN NEWBERRY JOY HOSPITAL", "CITY": "NEWBERRY", "BEDS": 25 }, "geometry": { "type": "Point", "coordinates": [ -85.515654, 46.35318 ] } },
{ "type": "Feature", "properties": { "NAME": "MUNISING MEMORIAL HOSPITAL", "CITY": "MUNISING", "BEDS": 11 }, "geometry": { "type": "Point", "coordinates": [ -86.625185, 46.425271 ] } },
{ "type": "Feature", "properties": { "NAME": "SAINT JOSEPH MERCY LIVINGSTON HOSPITAL", "CITY": "HOWELL", "BEDS": 136 }, "geometry": { "type": "Point", "coordinates": [ -83.94099, 42.615588 ] } },
{ "type": "Feature", "properties": { "NAME": "HILLSDALE COMMUNITY HEALTH CENTER", "CITY": "HILLSDALE", "BEDS": 65 }, "geometry": { "type": "Point", "coordinates": [ -84.633004, 41.911739 ] } },
{ "type": "Feature", "properties": { "NAME": "DMC SURGERY HOSPITAL", "CITY": "MADISON HEIGHTS", "BEDS": 36 }, "geometry": { "type": "Point", "coordinates": [ -83.120107, 42.517888 ] } },
{ "type": "Feature", "properties": { "NAME": "LAKELAND COMMUNITY HOSPITAL, WATERVLIET", "CITY": "WATERVLIET", "BEDS": 38 }, "geometry": { "type": "Point", "coordinates": [ -86.249926, 42.18488 ] } },
{ "type": "Feature", "properties": { "NAME": "MCLAREN CENTRAL MICHIGAN", "CITY": "MOUNT PLEASANT", "BEDS": 118 }, "geometry": { "type": "Point", "coordinates": [ -84.761413, 43.599122 ] } },
{ "type": "Feature", "properties": { "NAME": "SPECTRUM HEALTH LUDINGTON HOSPITAL", "CITY": "LUDINGTON", "BEDS": 49 }, "geometry": { "type": "Point", "coordinates": [ -86.430409, 43.958148 ] } },
{ "type": "Feature", "properties": { "NAME": "BRONSON LAKEVIEW HOSPITAL", "CITY": "PAW PAW", "BEDS": 35 }, "geometry": { "type": "Point", "coordinates": [ -85.89707, 42.221294 ] } },
{ "type": "Feature", "properties": { "NAME": "DECKERVILLE COMMUNITY HOSPITAL", "CITY": "DECKERVILLE", "BEDS": 15 }, "geometry": { "type": "Point", "coordinates": [ -82.734249, 43.528119 ] } },
{ "type": "Feature", "properties": { "NAME": "HENRY FORD HOSPITAL", "CITY": "DETROIT", "BEDS": 877 }, "geometry": { "type": "Point", "coordinates": [ -83.084723, 42.367687 ] } },
{ "type": "Feature", "properties": { "NAME": "VA MEDICAL CENTER - BATTLE CREEK", "CITY": "BATTLE CREEK", "BEDS": -999 }, "geometry": { "type": "Point", "coordinates": [ -85.291332, 42.343427 ] } },
{ "type": "Feature", "properties": { "NAME": "SHERIDAN COMMUNITY HOSPITAL", "CITY": "SHERIDAN", "BEDS": 22 }, "geometry": { "type": "Point", "coordinates": [ -85.074162, 43.215949 ] } },
{ "type": "Feature", "properties": { "NAME": "SAINT MARY'S STANDISH COMMUNITY HOSPITAL", "CITY": "STANDISH", "BEDS": 25 }, "geometry": { "type": "Point", "coordinates": [ -83.969217, 43.981866 ] } },
{ "type": "Feature", "properties": { "NAME": "MACKINAC STRAITS HOSPITAL AND HEALTH CENTER", "CITY": "SAINT IGNACE", "BEDS": 15 }, "geometry": { "type": "Point", "coordinates": [ -84.729451, 45.890631 ] } },
{ "type": "Feature", "properties": { "NAME": "PROMEDICA BIXBY HOSPITAL", "CITY": "ADRIAN", "BEDS": 88 }, "geometry": { "type": "Point", "coordinates": [ -84.049104, 41.913664 ] } },
{ "type": "Feature", "properties": { "NAME": "TAWAS ST JOSEPH HOSPITAL", "CITY": "TAWAS CITY", "BEDS": 49 }, "geometry": { "type": "Point", "coordinates": [ -83.50972, 44.275218 ] } },
{ "type": "Feature", "properties": { "NAME": "SPARROW HEALTH SYSTEM-ST LAWRENCE CAMPUS", "CITY": "LANSING", "BEDS": 50 }, "geometry": { "type": "Point", "coordinates": [ -84.569992, 42.74152 ] } },
{ "type": "Feature", "properties": { "NAME": "MCLAREN GREATER LANSING", "CITY": "LANSING", "BEDS": 322 }, "geometry": { "type": "Point", "coordinates": [ -84.554989, 42.703763 ] } },
{ "type": "Feature", "properties": { "NAME": "NORTH OTTAWA COMMUNITY HOSPITAL", "CITY": "GRAND HAVEN", "BEDS": 81 }, "geometry": { "type": "Point", "coordinates": [ -86.228829, 43.050773 ] } },
{ "type": "Feature", "properties": { "NAME": "STRAITH HOSPITAL FOR SPECIAL SURGERY", "CITY": "SOUTHFIELD", "BEDS": 34 }, "geometry": { "type": "Point", "coordinates": [ -83.261355, 42.464633 ] } },
{ "type": "Feature", "properties": { "NAME": "ASCENSION CRITTENTON HOSPITAL MEDICAL CENTER", "CITY": "ROCHESTER", "BEDS": 254 }, "geometry": { "type": "Point", "coordinates": [ -83.149513, 42.679815 ] } },
{ "type": "Feature", "properties": { "NAME": "OAKLAND REGIONAL HOSPITAL", "CITY": "SOUTHFIELD", "BEDS": 45 }, "geometry": { "type": "Point", "coordinates": [ -83.203197, 42.457493 ] } },
{ "type": "Feature", "properties": { "NAME": "LAKELAND HOSPITAL, ST JOSEPH", "CITY": "ST JOSEPH", "BEDS": 215 }, "geometry": { "type": "Point", "coordinates": [ -86.478771, 42.088254 ] } },
{ "type": "Feature", "properties": { "NAME": "LAKELAND HOSPITAL, NILES", "CITY": "NILES", "BEDS": 76 }, "geometry": { "type": "Point", "coordinates": [ -86.260489, 41.827925 ] } },
{ "type": "Feature", "properties": { "NAME": "COMMUNITY HEALTH CENTER OF BRANCH COUNTY", "CITY": "COLDWATER", "BEDS": 96 }, "geometry": { "type": "Point", "coordinates": [ -84.989689, 41.93761 ] } },
{ "type": "Feature", "properties": { "NAME": "BRONSON BATTLE CREEK HOSPITAL", "CITY": "BATTLE CREEK", "BEDS": 189 }, "geometry": { "type": "Point", "coordinates": [ -85.177947, 42.331086 ] } },
{ "type": "Feature", "properties": { "NAME": "BORGESS-LEE MEMORIAL HOSPITAL", "CITY": "DOWAGIAC", "BEDS": 25 }, "geometry": { "type": "Point", "coordinates": [ -86.115581, 41.983138 ] } },
{ "type": "Feature", "properties": { "NAME": "MEMORIAL HEALTHCARE", "CITY": "OWOSSO", "BEDS": 107 }, "geometry": { "type": "Point", "coordinates": [ -84.181677, 43.006052 ] } },
{ "type": "Feature", "properties": { "NAME": "HILLS & DALES GENERAL HOSPITAL", "CITY": "CASS CITY", "BEDS": 25 }, "geometry": { "type": "Point", "coordinates": [ -83.182604, 43.60418 ] } },
{ "type": "Feature", "properties": { "NAME": "ST JOSEPH MERCY HOSPITAL", "CITY": "ANN ARBOR", "BEDS": 513 }, "geometry": { "type": "Point", "coordinates": [ -83.65433, 42.265188 ] } },
{ "type": "Feature", "properties": { "NAME": "ST JOSEPH MERCY CHELSEA", "CITY": "CHELSEA", "BEDS": 102 }, "geometry": { "type": "Point", "coordinates": [ -84.015834, 42.310261 ] } },
{ "type": "Feature", "properties": { "NAME": "BEAUMONT HOSPITAL DEARBORN", "CITY": "DEARBORN", "BEDS": 632 }, "geometry": { "type": "Point", "coordinates": [ -83.214592, 42.290326 ] } },
{ "type": "Feature", "properties": { "NAME": "SINAI-GRACE HOSPITAL", "CITY": "DETROIT", "BEDS": 383 }, "geometry": { "type": "Point", "coordinates": [ -83.182025, 42.419118 ] } },
{ "type": "Feature", "properties": { "NAME": "BEAUMONT HOSPITAL GROSSE POINTE", "CITY": "GROSSE POINTE", "BEDS": 250 }, "geometry": { "type": "Point", "coordinates": [ -82.914404, 42.384396 ] } },
{ "type": "Feature", "properties": { "NAME": "HARPER UNIVERSITY HOSPITAL", "CITY": "DETROIT", "BEDS": 470 }, "geometry": { "type": "Point", "coordinates": [ -83.056391, 42.35178 ] } },
{ "type": "Feature", "properties": { "NAME": "METRO HEALTH HOSPITAL", "CITY": "WYOMING", "BEDS": 208 }, "geometry": { "type": "Point", "coordinates": [ -85.717703, 42.857818 ] } },
{ "type": "Feature", "properties": { "NAME": "MCLAREN - NORTHERN MICHIGAN", "CITY": "PETOSKEY", "BEDS": 178 }, "geometry": { "type": "Point", "coordinates": [ -84.97012, 45.372754 ] } },
{ "type": "Feature", "properties": { "NAME": "ASPIRUS IRON RIVER HOSPITAL & CLINICS", "CITY": "IRON RIVER", "BEDS": 25 }, "geometry": { "type": "Point", "coordinates": [ -88.619274, 46.099884 ] } },
{ "type": "Feature", "properties": { "NAME": "BELL MEMORIAL HOSPITAL", "CITY": "ISHPEMING", "BEDS": 25 }, "geometry": { "type": "Point", "coordinates": [ -87.684811, 46.504929 ] } },
{ "type": "Feature", "properties": { "NAME": "PROVIDENCE - PARK HOSPITAL", "CITY": "NOVI", "BEDS": 244 }, "geometry": { "type": "Point", "coordinates": [ -83.519246, 42.48866 ] } },
{ "type": "Feature", "properties": { "NAME": "BORGESS PIPP HOSPITAL", "CITY": "PLAINWELL", "BEDS": 43 }, "geometry": { "type": "Point", "coordinates": [ -85.653897, 42.446995 ] } },
{ "type": "Feature", "properties": { "NAME": "KINDRED HOSPITAL DETROIT", "CITY": "DETROIT", "BEDS": 77 }, "geometry": { "type": "Point", "coordinates": [ -83.019775, 42.442244 ] } },
{ "type": "Feature", "properties": { "NAME": "SPECTRUM HEALTH - FULLER CAMPUS", "CITY": "GRAND RAPIDS", "BEDS": 51 }, "geometry": { "type": "Point", "coordinates": [ -85.637957, 42.976324 ] } },
{ "type": "Feature", "properties": { "NAME": "PROMEDICA HERRICK HOSPITAL", "CITY": "TECUMSEH", "BEDS": 25 }, "geometry": { "type": "Point", "coordinates": [ -83.937822, 42.002591 ] } },
{ "type": "Feature", "properties": { "NAME": "HAYES GREEN BEACH MEMORIAL HOSPITAL", "CITY": "CHARLOTTE", "BEDS": 25 }, "geometry": { "type": "Point", "coordinates": [ -84.831952, 42.565325 ] } },
{ "type": "Feature", "properties": { "NAME": "MCKENZIE MEMORIAL HOSPITAL", "CITY": "SANDUSKY", "BEDS": 25 }, "geometry": { "type": "Point", "coordinates": [ -82.832133, 43.423482 ] } },
{ "type": "Feature", "properties": { "NAME": "MARLETTE REGIONAL HOSPITAL", "CITY": "MARLETTE", "BEDS": 25 }, "geometry": { "type": "Point", "coordinates": [ -83.081022, 43.332719 ] } },
{ "type": "Feature", "properties": { "NAME": "KALKASKA MEMORIAL HEALTH CENTER", "CITY": "KALKASKA", "BEDS": 8 }, "geometry": { "type": "Point", "coordinates": [ -85.184297, 44.731291 ] } },
{ "type": "Feature", "properties": { "NAME": "SCHOOLCRAFT MEMORIAL HOSPITAL", "CITY": "MANISTIQUE", "BEDS": 12 }, "geometry": { "type": "Point", "coordinates": [ -86.276154, 45.946684 ] } },
{ "type": "Feature", "properties": { "NAME": "SPARROW IONIA HOSPITAL", "CITY": "IONIA", "BEDS": 22 }, "geometry": { "type": "Point", "coordinates": [ -85.067967, 42.935931 ] } },
{ "type": "Feature", "properties": { "NAME": "PROMEDICA MONROE REGIONAL HOSPITAL", "CITY": "MONROE", "BEDS": 217 }, "geometry": { "type": "Point", "coordinates": [ -83.388085, 41.924565 ] } },
{ "type": "Feature", "properties": { "NAME": "SPECTRUM HEALTH UNITED MEMORIAL - UNITED CAMPUS", "CITY": "GREENVILLE", "BEDS": 49 }, "geometry": { "type": "Point", "coordinates": [ -85.269349, 43.174692 ] } },
{ "type": "Feature", "properties": { "NAME": "ST JOHN MACOMB-OAKLAND HOSPITAL-MACOMB CENTER", "CITY": "WARREN", "BEDS": 348 }, "geometry": { "type": "Point", "coordinates": [ -83.004943, 42.505813 ] } },
{ "type": "Feature", "properties": { "NAME": "HENRY FORD MACOMB HOSPITAL-MT CLEMENS CAMPUS", "CITY": "MOUNT CLEMENS", "BEDS": -999 }, "geometry": { "type": "Point", "coordinates": [ -82.880907, 42.606864 ] } },
{ "type": "Feature", "properties": { "NAME": "MCLAREN ORTHOPEDIC HOSPITAL", "CITY": "LANSING", "BEDS": 53 }, "geometry": { "type": "Point", "coordinates": [ -84.53503, 42.703304 ] } },
{ "type": "Feature", "properties": { "NAME": "EATON RAPIDS MEDICAL CENTER", "CITY": "EATON RAPIDS", "BEDS": 20 }, "geometry": { "type": "Point", "coordinates": [ -84.658651, 42.495252 ] } },
{ "type": "Feature", "properties": { "NAME": "MIDMICHIGAN MEDICAL CENTER-GRATIOT", "CITY": "ALMA", "BEDS": 67 }, "geometry": { "type": "Point", "coordinates": [ -84.66331, 43.390729 ] } },
{ "type": "Feature", "properties": { "NAME": "MERCY HEALTH MUSKEGON SHERMAN BLVD", "CITY": "MUSKEGON", "BEDS": 196 }, "geometry": { "type": "Point", "coordinates": [ -86.208605, 43.205794 ] } },
{ "type": "Feature", "properties": { "NAME": "CARO COMMUNITY HOSPITAL", "CITY": "CARO", "BEDS": 25 }, "geometry": { "type": "Point", "coordinates": [ -83.408206, 43.493187 ] } },
{ "type": "Feature", "properties": { "NAME": "LAKE HURON MEDICAL CENTER", "CITY": "PORT HURON", "BEDS": 144 }, "geometry": { "type": "Point", "coordinates": [ -82.43339, 42.955943 ] } },
{ "type": "Feature", "properties": { "NAME": "ST MARY MERCY HOSPITAL", "CITY": "LIVONIA", "BEDS": 273 }, "geometry": { "type": "Point", "coordinates": [ -83.408171, 42.393765 ] } },
{ "type": "Feature", "properties": { "NAME": "ST JOHN HOSPITAL AND MEDICAL CENTER", "CITY": "DETROIT", "BEDS": 673 }, "geometry": { "type": "Point", "coordinates": [ -82.914341, 42.419973 ] } },
{ "type": "Feature", "properties": { "NAME": "BEAUMONT HOSPITAL TRENTON", "CITY": "TRENTON", "BEDS": 193 }, "geometry": { "type": "Point", "coordinates": [ -83.213478, 42.11699 ] } },
{ "type": "Feature", "properties": { "NAME": "GARDEN CITY HOSPITAL", "CITY": "GARDEN CITY", "BEDS": 323 }, "geometry": { "type": "Point", "coordinates": [ -83.314985, 42.332135 ] } },
{ "type": "Feature", "properties": { "NAME": "MUNSON HEALTHCARE CADILLAC", "CITY": "CADILLAC", "BEDS": 49 }, "geometry": { "type": "Point", "coordinates": [ -85.389295, 44.245448 ] } },
{ "type": "Feature", "properties": { "NAME": "SPECTRUM HEALTH - BLODGETT CAMPUS", "CITY": "GRAND RAPIDS", "BEDS": 319 }, "geometry": { "type": "Point", "coordinates": [ -85.623317, 42.953651 ] } },
{ "type": "Feature", "properties": { "NAME": "ASPIRUS IRONWOOD HOSPITAL", "CITY": "IRONWOOD", "BEDS": 25 }, "geometry": { "type": "Point", "coordinates": [ -90.106733, 46.480746 ] } },
{ "type": "Feature", "properties": { "NAME": "MUNSON HEALTHCARE CHARLEVOIX HOSPITAL", "CITY": "CHARLEVOIX", "BEDS": 25 }, "geometry": { "type": "Point", "coordinates": [ -85.274863, 45.31482 ] } },
{ "type": "Feature", "properties": { "NAME": "SCHOOLCRAFT MEMORIAL HOSPITAL", "CITY": "MANISTIQUE", "BEDS": 25 }, "geometry": { "type": "Point", "coordinates": [ -86.239522, 45.958262 ] } },
{ "type": "Feature", "properties": { "NAME": "MIDMICHIGAN MEDICAL CENTER - ALPENA", "CITY": "ALPENA", "BEDS": 124 }, "geometry": { "type": "Point", "coordinates": [ -83.449374, 45.077673 ] } },
{ "type": "Feature", "properties": { "NAME": "HENRY FORD MEDICAL CENTER COTTAGE", "CITY": "GROSSE POINTE FARMS", "BEDS": 4 }, "geometry": { "type": "Point", "coordinates": [ -82.902414, 42.396939 ] } },
{ "type": "Feature", "properties": { "NAME": "HENRY FORD ALLEGIANCE CARELINK", "CITY": "JACKSON", "BEDS": 64 }, "geometry": { "type": "Point", "coordinates": [ -84.38556, 42.251881 ] } },
{ "type": "Feature", "properties": { "NAME": "VIBRA OF SOUTHEASTERN MICHIGAN", "CITY": "LINCOLN PARK", "BEDS": 192 }, "geometry": { "type": "Point", "coordinates": [ -83.163895, 42.256312 ] } },
{ "type": "Feature", "properties": { "NAME": "BRIGHTON HOSPITAL", "CITY": "BRIGHTON", "BEDS": 41 }, "geometry": { "type": "Point", "coordinates": [ -83.695833, 42.51972 ] } },
{ "type": "Feature", "properties": { "NAME": "REHABILITATION INSTITUTE OF MICHIGAN", "CITY": "DETROIT", "BEDS": 74 }, "geometry": { "type": "Point", "coordinates": [ -83.055603, 42.34971 ] } },
{ "type": "Feature", "properties": { "NAME": "ROGERS CITY REHABILITATION HOSPITAL", "CITY": "ROGERS CITY", "BEDS": 28 }, "geometry": { "type": "Point", "coordinates": [ -83.835276, 45.422114 ] } },
{ "type": "Feature", "properties": { "NAME": "SOUTHEAST MICHIGAN SURGICAL HOSPITAL", "CITY": "WARREN", "BEDS": 20 }, "geometry": { "type": "Point", "coordinates": [ -83.081604, 42.451656 ] } },
{ "type": "Feature", "properties": { "NAME": "WEST BRANCH REGIONAL MEDICAL CENTER", "CITY": "WEST BRANCH", "BEDS": 88 }, "geometry": { "type": "Point", "coordinates": [ -84.244301, 44.263802 ] } },
{ "type": "Feature", "properties": { "NAME": "STURGIS HOSPITAL", "CITY": "STURGIS", "BEDS": 84 }, "geometry": { "type": "Point", "coordinates": [ -85.407565, 41.794629 ] } },
{ "type": "Feature", "properties": { "NAME": "SPECTRUM HEALTH PENNOCK HOSPITAL", "CITY": "HASTINGS", "BEDS": 49 }, "geometry": { "type": "Point", "coordinates": [ -85.302825, 42.644774 ] } },
{ "type": "Feature", "properties": { "NAME": "MCLAREN BAY REGION", "CITY": "BAY CITY", "BEDS": 338 }, "geometry": { "type": "Point", "coordinates": [ -83.868396, 43.588216 ] } },
{ "type": "Feature", "properties": { "NAME": "FOREST HEALTH MEDICAL CENTER", "CITY": "YPSILANTI", "BEDS": 68 }, "geometry": { "type": "Point", "coordinates": [ -83.600648, 42.237571 ] } },
{ "type": "Feature", "properties": { "NAME": "MARY FREE BED HOSPITAL & REHABILITATION CENTER", "CITY": "GRAND RAPIDS", "BEDS": 119 }, "geometry": { "type": "Point", "coordinates": [ -85.662746, 42.956974 ] } },
{ "type": "Feature", "properties": { "NAME": "ASPIRUS KEWEENAW HOSPITAL", "CITY": "LAURIUM", "BEDS": 25 }, "geometry": { "type": "Point", "coordinates": [ -88.443501, 47.238783 ] } },
{ "type": "Feature", "properties": { "NAME": "DICKINSON COUNTY MEMORIAL HOSPITAL", "CITY": "IRON MOUNTAIN", "BEDS": 96 }, "geometry": { "type": "Point", "coordinates": [ -88.044451, 45.809878 ] } },
{ "type": "Feature", "properties": { "NAME": "ASPIRUS ONTONAGON HOSPITAL, INC", "CITY": "ONTONAGON", "BEDS": 25 }, "geometry": { "type": "Point", "coordinates": [ -89.301658, 46.865595 ] } },
{ "type": "Feature", "properties": { "NAME": "OTSEGO MEMORIAL HOSPITAL", "CITY": "GAYLORD", "BEDS": 46 }, "geometry": { "type": "Point", "coordinates": [ -84.674918, 45.035327 ] } },
{ "type": "Feature", "properties": { "NAME": "ST MARY'S OF MICHIGAN-TOWNE CTR", "CITY": "SAGINAW", "BEDS": -999 }, "geometry": { "type": "Point", "coordinates": [ -83.964932, 43.473972 ] } },
{ "type": "Feature", "properties": { "NAME": "SELECT SPECIALTY HOSPITAL", "CITY": "TAYLOR", "BEDS": 40 }, "geometry": { "type": "Point", "coordinates": [ -83.27534, 42.235169 ] } },
{ "type": "Feature", "properties": { "NAME": "MCLAREN BAY SPECIAL CARE HOSPITAL", "CITY": "BAY CITY", "BEDS": 31 }, "geometry": { "type": "Point", "coordinates": [ -83.924457, 43.600477 ] } },
{ "type": "Feature", "properties": { "NAME": "DETROIT RECEIVING HOSPITAL & UNIV HEALTH CENTER", "CITY": "DETROIT", "BEDS": 273 }, "geometry": { "type": "Point", "coordinates": [ -83.054491, 42.353436 ] } },
{ "type": "Feature", "properties": { "NAME": "SELECT SPECIALTY HOSPITAL - GROSSE POINTE", "CITY": "DETROIT", "BEDS": 30 }, "geometry": { "type": "Point", "coordinates": [ -82.915286, 42.420171 ] } },
{ "type": "Feature", "properties": { "NAME": "VIBRA HOSPITAL OF SOUTHEASTERN MICHIGAN-DMC CAMPUS", "CITY": "DETROIT", "BEDS": 28 }, "geometry": { "type": "Point", "coordinates": [ -83.056103, 42.349453 ] } },
{ "type": "Feature", "properties": { "NAME": "VIBRA HOSPITAL OF SOUTHEASTERN MI - TAYLOR CAMPUS", "CITY": "TAYLOR", "BEDS": 40 }, "geometry": { "type": "Point", "coordinates": [ -83.27709, 42.234776 ] } },
{ "type": "Feature", "properties": { "NAME": "UNIVERSITY OF MICHIGAN HEALTH SYSTEM", "CITY": "ANN ARBOR", "BEDS": 1000 }, "geometry": { "type": "Point", "coordinates": [ -83.728708, 42.283192 ] } },
{ "type": "Feature", "properties": { "NAME": "PIONEER SPECIALTY HOSPITAL", "CITY": "PONTIAC", "BEDS": 30 }, "geometry": { "type": "Point", "coordinates": [ -83.29099, 42.638427 ] } },
{ "type": "Feature", "properties": { "NAME": "SELECT SPECIALTY HOSPITAL - WYANDOTTE, LLC", "CITY": "WYANDOTTE", "BEDS": 35 }, "geometry": { "type": "Point", "coordinates": [ -83.14792, 42.210121 ] } },
{ "type": "Feature", "properties": { "NAME": "SELECT SPECIALTY HOSPITAL - MACOMB COUNTY", "CITY": "MOUNT CLEMENS", "BEDS": 30 }, "geometry": { "type": "Point", "coordinates": [ -82.881855, 42.60645 ] } },
{ "type": "Feature", "properties": { "NAME": "SELECT SPECIALTY HOSPITAL - GRAND RAPIDS", "CITY": "GRAND RAPIDS", "BEDS": 20 }, "geometry": { "type": "Point", "coordinates": [ -85.662583, 42.958141 ] } },
{ "type": "Feature", "properties": { "NAME": "SELECT SPECIALTY HOSPITAL - NORTHWEST DETROIT", "CITY": "DETROIT", "BEDS": 36 }, "geometry": { "type": "Point", "coordinates": [ -83.183185, 42.419195 ] } },
{ "type": "Feature", "properties": { "NAME": "SELECT SPECIALTY HOSPITAL - FLINT", "CITY": "FLINT", "BEDS": 26 }, "geometry": { "type": "Point", "coordinates": [ -83.732879, 43.014439 ] } },
{ "type": "Feature", "properties": { "NAME": "SELECT SPECIALTY HOSPITAL - PONTIAC", "CITY": "PONTIAC", "BEDS": 30 }, "geometry": { "type": "Point", "coordinates": [ -83.276816, 42.614038 ] } },
{ "type": "Feature", "properties": { "NAME": "SELECT SPECIALTY HOSPITAL - MUSKEGON", "CITY": "MUSKEGON", "BEDS": 31 }, "geometry": { "type": "Point", "coordinates": [ -86.242255, 43.223422 ] } },
{ "type": "Feature", "properties": { "NAME": "SELECT SPECIALTY HOSPITAL - BATTLE CREEK", "CITY": "BATTLE CREEK", "BEDS": 25 }, "geometry": { "type": "Point", "coordinates": [ -85.179345, 42.330636 ] } },
{ "type": "Feature", "properties": { "NAME": "SELECT SPECIALTY HOSPITAL - SAGINAW", "CITY": "SAGINAW", "BEDS": 32 }, "geometry": { "type": "Point", "coordinates": [ -83.955943, 43.428654 ] } },
{ "type": "Feature", "properties": { "NAME": "SELECT SPECIALTY HOSPITAL - ANN ARBOR", "CITY": "YPSILANTI", "BEDS": 36 }, "geometry": { "type": "Point", "coordinates": [ -83.655421, 42.263896 ] } },
{ "type": "Feature", "properties": { "NAME": "SELECT SPECIALTY HOSPITAL - GROSSE POINTE", "CITY": "GROSSE POINTE", "BEDS": 30 }, "geometry": { "type": "Point", "coordinates": [ -82.914794, 42.384038 ] } },
{ "type": "Feature", "properties": { "NAME": "SELECT SPECIALTY HOSPITAL - SPECTRUM HEALTH", "CITY": "GRAND RAPIDS", "BEDS": 36 }, "geometry": { "type": "Point", "coordinates": [ -85.622567, 42.953487 ] } },
{ "type": "Feature", "properties": { "NAME": "SPARROW SPECIALTY HOSPITAL", "CITY": "LANSING", "BEDS": 30 }, "geometry": { "type": "Point", "coordinates": [ -84.535963, 42.734195 ] } },
{ "type": "Feature", "properties": { "NAME": "MUNSON HEALTHCARE MANISTEE HOSPITAL", "CITY": "MANISTEE", "BEDS": 45 }, "geometry": { "type": "Point", "coordinates": [ -86.274218, 44.271079 ] } },
{ "type": "Feature", "properties": { "NAME": "HURON MEDICAL CENTER", "CITY": "BAD AXE", "BEDS": 48 }, "geometry": { "type": "Point", "coordinates": [ -83.032129, 43.80321 ] } },
{ "type": "Feature", "properties": { "NAME": "BEAUMONT HOSPITAL TROY", "CITY": "TROY", "BEDS": 520 }, "geometry": { "type": "Point", "coordinates": [ -83.09359, 42.618998 ] } },
{ "type": "Feature", "properties": { "NAME": "MERCY HEALTH MUSKEGON", "CITY": "MUSKEGON", "BEDS": 186 }, "geometry": { "type": "Point", "coordinates": [ -86.241732, 43.222564 ] } },
{ "type": "Feature", "properties": { "NAME": "COVENANT MEDICAL CENTER", "CITY": "SAGINAW", "BEDS": 277 }, "geometry": { "type": "Point", "coordinates": [ -83.95649, 43.428452 ] } },
{ "type": "Feature", "properties": { "NAME": "SPARROW SPECIALTY HOSPITAL", "CITY": "LANSING", "BEDS": 30 }, "geometry": { "type": "Point", "coordinates": [ -84.570441, 42.741624 ] } },
{ "type": "Feature", "properties": { "NAME": "SOUTHWEST REGIONAL REHABILITATION CENTER", "CITY": "BATTLE CREEK", "BEDS": 26 }, "geometry": { "type": "Point", "coordinates": [ -85.175194, 42.34 ] } },
{ "type": "Feature", "properties": { "NAME": "OSCAR G. JOHNSON VA MEDICAL CENTER", "CITY": "IRON MOUNTAIN", "BEDS": -999 }, "geometry": { "type": "Point", "coordinates": [ -88.061545, 45.810297 ] } },
{ "type": "Feature", "properties": { "NAME": "SPECTRUM HEALTH  KELSEY HOSPITAL", "CITY": "LAKEVIEW", "BEDS": 16 }, "geometry": { "type": "Point", "coordinates": [ -85.277923, 43.441218 ] } },
{ "type": "Feature", "properties": { "NAME": "SCHEURER HOSPITAL", "CITY": "PIGEON", "BEDS": 25 }, "geometry": { "type": "Point", "coordinates": [ -83.27819, 43.834188 ] } },
{ "type": "Feature", "properties": { "NAME": "HARBOR BEACH COMMUNITY HOSPITAL", "CITY": "HARBOR BEACH", "BEDS": 15 }, "geometry": { "type": "Point", "coordinates": [ -82.652116, 43.842663 ] } },
{ "type": "Feature", "properties": { "NAME": "SPECTRUM HEALTH - REED CITY CAMPUS", "CITY": "REED CITY", "BEDS": 25 }, "geometry": { "type": "Point", "coordinates": [ -85.521292, 43.878462 ] } },
{ "type": "Feature", "properties": { "NAME": "SPARROW CLINTON HOSPITAL", "CITY": "SAINT JOHNS", "BEDS": 25 }, "geometry": { "type": "Point", "coordinates": [ -84.555136, 42.993131 ] } },
{ "type": "Feature", "properties": { "NAME": "PAUL OLIVER MEMORIAL HOSPITAL", "CITY": "FRANKFORT", "BEDS": 8 }, "geometry": { "type": "Point", "coordinates": [ -86.243001, 44.636782 ] } },
{ "type": "Feature", "properties": { "NAME": "SPARROW CARSON HOSPITAL", "CITY": "CARSON CITY", "BEDS": 61 }, "geometry": { "type": "Point", "coordinates": [ -84.842418, 43.175585 ] } },
{ "type": "Feature", "properties": { "NAME": "IONIA COUNTY MEMORIAL HOSPITAL", "CITY": "IONIA", "BEDS": 25 }, "geometry": { "type": "Point", "coordinates": [ -85.050459, 42.98518 ] } },
{ "type": "Feature", "properties": { "NAME": "ST JOHN MACOMB-OAKLAND HOSPITAL-OAKLAND CENTER", "CITY": "MADISON HEIGHTS", "BEDS": 133 }, "geometry": { "type": "Point", "coordinates": [ -83.086794, 42.493916 ] } },
{ "type": "Feature", "properties": { "NAME": "SPECTRUM HEALTH GERBER MEMORIAL", "CITY": "FREMONT", "BEDS": 25 }, "geometry": { "type": "Point", "coordinates": [ -85.950363, 43.46481 ] } },
{ "type": "Feature", "properties": { "NAME": "SPECTRUM HEALTH BIG RAPIDS HOSPITAL", "CITY": "BIG RAPIDS", "BEDS": 69 }, "geometry": { "type": "Point", "coordinates": [ -85.474928, 43.693885 ] } },
{ "type": "Feature", "properties": { "NAME": "MIDMICHIGAN MEDICAL CENTER-CLARE", "CITY": "CLARE", "BEDS": 49 }, "geometry": { "type": "Point", "coordinates": [ -84.769047, 43.820965 ] } },
{ "type": "Feature", "properties": { "NAME": "THREE RIVERS HEALTH", "CITY": "THREE RIVERS", "BEDS": 60 }, "geometry": { "type": "Point", "coordinates": [ -85.647926, 41.935408 ] } },
{ "type": "Feature", "properties": { "NAME": "ST JOHN RIVER DISTRICT HOSPITAL", "CITY": "EAST CHINA", "BEDS": 68 }, "geometry": { "type": "Point", "coordinates": [ -82.479202, 42.785364 ] } },
{ "type": "Feature", "properties": { "NAME": "COVENANT MEDICAL CENTER, COOPER", "CITY": "SAGINAW", "BEDS": 290 }, "geometry": { "type": "Point", "coordinates": [ -83.953002, 43.429786 ] } },
{ "type": "Feature", "properties": { "NAME": "COVENANT MEDICAL CENTER, MICHIGAN", "CITY": "SAGINAW", "BEDS": 56 }, "geometry": { "type": "Point", "coordinates": [ -83.960292, 43.4208 ] } },
{ "type": "Feature", "properties": { "NAME": "HUTZEL WOMEN'S HOSPITAL", "CITY": "DETROIT", "BEDS": 114 }, "geometry": { "type": "Point", "coordinates": [ -83.055858, 42.351137 ] } },
{ "type": "Feature", "properties": { "NAME": "CHIPPEWA COUNTY WAR MEMORIAL HOSPITAL", "CITY": "SAULT SAINTE MARIE", "BEDS": 82 }, "geometry": { "type": "Point", "coordinates": [ -84.350551, 46.498081 ] } },
{ "type": "Feature", "properties": { "NAME": "BARAGA COUNTY MEMORIAL HOSPITAL", "CITY": "L' ANSE", "BEDS": 15 }, "geometry": { "type": "Point", "coordinates": [ -88.425004, 46.73179 ] } },
{ "type": "Feature", "properties": { "NAME": "ST JOSEPH MERCY HOSPITAL-SALINE", "CITY": "SALINE", "BEDS": -999 }, "geometry": { "type": "Point", "coordinates": [ -83.790885, 42.167232 ] } },
{ "type": "Feature", "properties": { "NAME": "LAKELAND SPECIALTY HOSPITAL AT BERRIEN CENTER", "CITY": "BERRIEN CENTER", "BEDS": 183 }, "geometry": { "type": "Point", "coordinates": [ -86.301097, 41.955458 ] } },
{ "type": "Feature", "properties": { "NAME": "ALEDA E. LUTZ VA MEDICAL CENTER", "CITY": "SAGINAW", "BEDS": -999 }, "geometry": { "type": "Point", "coordinates": [ -83.962024, 43.444796 ] } },
{ "type": "Feature", "properties": { "NAME": "MCLAREN OAKLAND", "CITY": "PONTIAC", "BEDS": 285 }, "geometry": { "type": "Point", "coordinates": [ -83.291492, 42.638323 ] } },
{ "type": "Feature", "properties": { "NAME": "MCLAREN BAY REGIONAL", "CITY": "BAY CITY", "BEDS": 20 }, "geometry": { "type": "Point", "coordinates": [ -83.9244, 43.599837 ] } },
{ "type": "Feature", "properties": { "NAME": "JOHN D. DINGELL VA MEDICAL CENTER", "CITY": "DETROIT", "BEDS": -999 }, "geometry": { "type": "Point", "coordinates": [ -83.059198, 42.355722 ] } },
{ "type": "Feature", "properties": { "NAME": "VA ANN ARBOR HEALTHCARE SYSTEM", "CITY": "ANN ARBOR", "BEDS": -999 }, "geometry": { "type": "Point", "coordinates": [ -83.714641, 42.286693 ] } },
{ "type": "Feature", "properties": { "NAME": "CHILDREN'S HOSPITAL OF MICHIGAN", "CITY": "DETROIT", "BEDS": 228 }, "geometry": { "type": "Point", "coordinates": [ -83.05475, 42.351435 ] } },
{ "type": "Feature", "properties": { "NAME": "MIDMICHIGAN MEDICAL CENTER-MIDLAND", "CITY": "MIDLAND", "BEDS": 308 }, "geometry": { "type": "Point", "coordinates": [ -84.260396, 43.635236 ] } },
{ "type": "Feature", "properties": { "NAME": "MCLAREN MACOMB", "CITY": "MOUNT CLEMENS", "BEDS": 288 }, "geometry": { "type": "Point", "coordinates": [ -82.896903, 42.587336 ] } },
{ "type": "Feature", "properties": { "NAME": "HENRY FORD MACOMB HOSPITAL-WARREN CAMPUS", "CITY": "WARREN", "BEDS": 203 }, "geometry": { "type": "Point", "coordinates": [ -82.988284, 42.479543 ] } },
{ "type": "Feature", "properties": { "NAME": "HENRY FORD MACOMB HOSPITAL", "CITY": "CLINTON TOWNSHIP", "BEDS": 433 }, "geometry": { "type": "Point", "coordinates": [ -82.960678, 42.614875 ] } },
{ "type": "Feature", "properties": { "NAME": "EDWARD W SPARROW HOSPITAL", "CITY": "LANSING", "BEDS": 638 }, "geometry": { "type": "Point", "coordinates": [ -84.535342, 42.734099 ] } },
{ "type": "Feature", "properties": { "NAME": "MCLAREN FLINT", "CITY": "FLINT", "BEDS": 350 }, "geometry": { "type": "Point", "coordinates": [ -83.732803, 43.013758 ] } },
{ "type": "Feature", "properties": { "NAME": "GENESYS REGIONAL MEDICAL CENTER - HEALTH PARK", "CITY": "GRAND BLANC", "BEDS": 410 }, "geometry": { "type": "Point", "coordinates": [ -83.642261, 42.892455 ] } },
{ "type": "Feature", "properties": { "NAME": "HURLEY MEDICAL CENTER", "CITY": "FLINT", "BEDS": 383 }, "geometry": { "type": "Point", "coordinates": [ -83.704956, 43.021175 ] } },
{ "type": "Feature", "properties": { "NAME": "HOLLAND COMMUNITY HOSPITAL", "CITY": "HOLLAND", "BEDS": 173 }, "geometry": { "type": "Point", "coordinates": [ -86.114039, 42.7749 ] } },
{ "type": "Feature", "properties": { "NAME": "SPECTRUM HEALTH ZEELAND COMMUNITY HOSPITAL", "CITY": "ZEELAND", "BEDS": 57 }, "geometry": { "type": "Point", "coordinates": [ -85.987714, 42.821297 ] } },
{ "type": "Feature", "properties": { "NAME": "PONTIAC GENERAL HOSPITAL", "CITY": "PONTIAC", "BEDS": 336 }, "geometry": { "type": "Point", "coordinates": [ -83.309523, 42.634584 ] } },
{ "type": "Feature", "properties": { "NAME": "ST JOSEPH MERCY OAKLAND", "CITY": "PONTIAC", "BEDS": 410 }, "geometry": { "type": "Point", "coordinates": [ -83.276759, 42.615009 ] } },
{ "type": "Feature", "properties": { "NAME": "BEAUMONT HOSPITAL ROYAL OAK", "CITY": "ROYAL OAK", "BEDS": 1070 }, "geometry": { "type": "Point", "coordinates": [ -83.192567, 42.515011 ] } },
{ "type": "Feature", "properties": { "NAME": "BEAUMONT HOSPITAL FARMINGTON HILLS", "CITY": "FARMINGTON HILLS", "BEDS": 305 }, "geometry": { "type": "Point", "coordinates": [ -83.32365, 42.44634 ] } },
{ "type": "Feature", "properties": { "NAME": "HENRY FORD WEST BLOOMFIELD HOSPITAL", "CITY": "W BLOOMFIELD", "BEDS": 191 }, "geometry": { "type": "Point", "coordinates": [ -83.407039, 42.538673 ] } },
{ "type": "Feature", "properties": { "NAME": "HURON VALLEY-SINAI HOSPITAL", "CITY": "COMMERCE TOWNSHIP", "BEDS": 153 }, "geometry": { "type": "Point", "coordinates": [ -83.499091, 42.592615 ] } },
{ "type": "Feature", "properties": { "NAME": "PROVIDENCE - PROVIDENCE PARK HOSPITAL", "CITY": "SOUTHFIELD", "BEDS": 359 }, "geometry": { "type": "Point", "coordinates": [ -83.205131, 42.457778 ] } },
{ "type": "Feature", "properties": { "NAME": "BORGESS MEDICAL CENTER", "CITY": "KALAMAZOO", "BEDS": 387 }, "geometry": { "type": "Point", "coordinates": [ -85.561355, 42.306887 ] } },
{ "type": "Feature", "properties": { "NAME": "BRONSON METHODIST HOSPITAL", "CITY": "KALAMAZOO", "BEDS": 434 }, "geometry": { "type": "Point", "coordinates": [ -85.580291, 42.285258 ] } },
{ "type": "Feature", "properties": { "NAME": "HENRY FORD ALLEGIANCE HEALTH", "CITY": "JACKSON", "BEDS": 325 }, "geometry": { "type": "Point", "coordinates": [ -84.392693, 42.250735 ] } },
{ "type": "Feature", "properties": { "NAME": "OAKLAWN HOSPITAL", "CITY": "MARSHALL", "BEDS": 77 }, "geometry": { "type": "Point", "coordinates": [ -84.956773, 42.273733 ] } },
{ "type": "Feature", "properties": { "NAME": "BRONSON SOUTH HAVEN HOSPITAL", "CITY": "SOUTH HAVEN", "BEDS": 49 }, "geometry": { "type": "Point", "coordinates": [ -86.262867, 42.391315 ] } },
{ "type": "Feature", "properties": { "NAME": "ALLEGAN GENERAL HOSPITAL", "CITY": "ALLEGAN", "BEDS": 25 }, "geometry": { "type": "Point", "coordinates": [ -85.85637, 42.519966 ] } },
{ "type": "Feature", "properties": { "NAME": "MCLAREN PORT HURON", "CITY": "PORT HURON", "BEDS": 186 }, "geometry": { "type": "Point", "coordinates": [ -82.42963, 42.986871 ] } },
{ "type": "Feature", "properties": { "NAME": "ST MARY'S OF MICHIGAN MEDICAL CENTER", "CITY": "SAGINAW", "BEDS": 268 }, "geometry": { "type": "Point", "coordinates": [ -83.938661, 43.424028 ] } },
{ "type": "Feature", "properties": { "NAME": "BEAUMONT HOSPITAL WAYNE", "CITY": "WAYNE", "BEDS": 185 }, "geometry": { "type": "Point", "coordinates": [ -83.364405, 42.273033 ] } },
{ "type": "Feature", "properties": { "NAME": "HENRY FORD WYANDOTTE HOSPITAL", "CITY": "WYANDOTTE", "BEDS": 345 }, "geometry": { "type": "Point", "coordinates": [ -83.147127, 42.210161 ] } },
{ "type": "Feature", "properties": { "NAME": "BEAUMONT HOSPITAL TAYLOR", "CITY": "TAYLOR", "BEDS": 151 }, "geometry": { "type": "Point", "coordinates": [ -83.276433, 42.23519 ] } },
{ "type": "Feature", "properties": { "NAME": "KARMANOS CANCER CENTER", "CITY": "DETROIT", "BEDS": 123 }, "geometry": { "type": "Point", "coordinates": [ -83.056627, 42.35072 ] } },
{ "type": "Feature", "properties": { "NAME": "MCLAREN LAPEER REGION", "CITY": "LAPEER", "BEDS": 183 }, "geometry": { "type": "Point", "coordinates": [ -83.320371, 43.062987 ] } },
{ "type": "Feature", "properties": { "NAME": "SAINT MARY'S HEALTH CARE", "CITY": "GRAND RAPIDS", "BEDS": 255 }, "geometry": { "type": "Point", "coordinates": [ -85.663138, 42.958736 ] } },
{ "type": "Feature", "properties": { "NAME": "SPECTRUM HEALTH - BUTTERWORTH CAMPUS", "CITY": "GRAND RAPIDS", "BEDS": 852 }, "geometry": { "type": "Point", "coordinates": [ -85.665747, 42.969669 ] } },
{ "type": "Feature", "properties": { "NAME": "UP HEALTH SYSTEM PORTAGE", "CITY": "HANCOCK", "BEDS": 36 }, "geometry": { "type": "Point", "coordinates": [ -88.587043, 47.139819 ] } },
{ "type": "Feature", "properties": { "NAME": "ST FRANCIS HOSPITAL", "CITY": "ESCANABA", "BEDS": 25 }, "geometry": { "type": "Point", "coordinates": [ -87.096004, 45.742566 ] } },
{ "type": "Feature", "properties": { "NAME": "UP HEALTH SYSTEM - MARQUETTE", "CITY": "MARQUETTE", "BEDS": 264 }, "geometry": { "type": "Point", "coordinates": [ -87.400824, 46.554266 ] } },
{ "type": "Feature", "properties": { "NAME": "MUNSON MEDICAL CENTER", "CITY": "TRAVERSE CITY", "BEDS": 377 }, "geometry": { "type": "Point", "coordinates": [ -85.641636, 44.760978 ] } },
{ "type": "Feature", "properties": { "NAME": "MUNSON HEALTHCARE GRAYLING", "CITY": "GRAYLING", "BEDS": 71 }, "geometry": { "type": "Point", "coordinates": [ -84.707015, 44.668097 ] } },
{ "type": "Feature", "properties": { "NAME": "HEALTHSOURCE SAGINAW", "CITY": "SAGINAW", "BEDS": 45 }, "geometry": { "type": "Point", "coordinates": [ -84.050337, 43.454742 ] } }
]
}
