{
"type": "FeatureCollection",
"name": "ny_colleges",
"crs": { "type": "name", "properties": { "name": "urn:ogc:def:crs:OGC:1.3:CRS84" } },
"features": [
{ "type": "Feature", "properties": { "NAME": "SUNY BROOME COMMUNITY COLLEGE", "CITY": "BINGHAMTON", "DORM_CAP": 360 }, "geometry": { "type": "Point", "coordinates": [ -75.909212, 42.13532 ] } },
{ "type": "Feature", "properties": { "NAME": "CONTINENTAL SCHOOL OF BEAUTY CULTURE-BATAVIA", "CITY": "BATAVIA", "DORM_CAP": -999 }, "geometry": { "type": "Point", "coordinates": [ -78.180099, 42.997351 ] } },
{ "type": "Feature", "properties": { "NAME": "CORNING COMMUNITY COLLEGE", "CITY": "CORNING", "DORM_CAP": 270 }, "geometry": { "type": "Point", "coordinates": [ -77.073708, 42.11724 ] } },
{ "type": "Feature", "properties": { "NAME": "MESIVTHA TIFERETH JERUSALEM OF AMERICA", "CITY": "NEW YORK", "DORM_CAP": 146 }, "geometry": { "type": "Point", "coordinates": [ -73.991271, 40.713812 ] } },
{ "type": "Feature", "properties": { "NAME": "COLLEGE OF MOUNT SAINT VINCENT", "CITY": "BRONX", "DORM_CAP": 914 }, "geometry": { "type": "Point", "coordinates": [ -73.906349, 40.912814 ] } },
{ "type": "Feature", "properties": { "NAME": "NEW YORK CHIROPRACTIC COLLEGE", "CITY": "SENECA FALLS", "DORM_CAP": 150 }, "geometry": { "type": "Point", "coordinates": [ -76.756232, 42.91173 ] } },
{ "type": "Feature", "properties": { "NAME": "RIDLEY-LOWELL BUSINESS & TECHNICAL INSTITUTE-BINGHAMTON", "CITY": "BINGHAMTON", "DORM_CAP": -999 }, "geometry": { "type": "Point", "coordinates": [ -75.917107, 42.099295 ] } },
{ "type": "Feature", "properties": { "NAME": "ST LAWRENCE UNIVERSITY", "CITY": "CANTON", "DORM_CAP": 2362 }, "geometry": { "type": "Point", "coordinates": [ -75.161343, 44.589879 ] } },
{ "type": "Feature", "properties": { "NAME": "ST. JOSEPH'S COLLEGE-LONG ISLAND", "CITY": "PATCHOGUE", "DORM_CAP": -999 }, "geometry": { "type": "Point", "coordinates": [ -73.024697, 40.775627 ] } },
{ "type": "Feature", "properties": { "NAME": "SUNY BUFFALO STATE", "CITY": "BUFFALO", "DORM_CAP": 2612 }, "geometry": { "type": "Point", "coordinates": [ -78.880684, 42.9337 ] } },
{ "type": "Feature", "properties": { "NAME": "YESHIVA AND KOLLEL HARBOTZAS TORAH", "CITY": "BROOKLYN", "DORM_CAP": -999 }, "geometry": { "type": "Point", "coordinates": [ -73.961017, 40.623891 ] } },
{ "type": "Feature", "properties": { "NAME": "CONTINENTAL SCHOOL OF BEAUTY CULTURE-OLEAN", "CITY": "OLEAN", "DORM_CAP": -999 }, "geometry": { "type": "Point", "coordinates": [ -78.428158, 42.084487 ] } },
{ "type": "Feature", "properties": { "NAME": "HERKIMER COUNTY BOCES-PRACTICAL NURSING PROGRAM", "CITY": "ILION", "DORM_CAP": -999 }, "geometry": { "type": "Point", "coordinates": [ -75.046957, 43.019394 ] } },
{ "type": "Feature", "properties": { "NAME": "FIVE TOWNS COLLEGE", "CITY": "DIX HILLS", "DORM_CAP": 208 }, "geometry": { "type": "Point", "coordinates": [ -73.369348, 40.794506 ] } },
{ "type": "Feature", "properties": { "NAME": "HARTWICK COLLEGE", "CITY": "ONEONTA", "DORM_CAP": 1223 }, "geometry": { "type": "Point", "coordinates": [ -75.071684, 42.459178 ] } },
{ "type": "Feature", "properties": { "NAME": "IONA COLLEGE", "CITY": "NEW ROCHELLE", "DORM_CAP": 1575 }, "geometry": { "type": "Point", "coordinates": [ -73.786492, 40.926678 ] } },
{ "type": "Feature", "properties": { "NAME": "MANHATTANVILLE COLLEGE", "CITY": "PURCHASE", "DORM_CAP": 1149 }, "geometry": { "type": "Point", "coordinates": [ -73.715636, 41.032183 ] } },
{ "type": "Feature", "properties": { "NAME": "MONROE COMMUNITY COLLEGE", "CITY": "ROCHESTER", "DORM_CAP": 772 }, "geometry": { "type": "Point", "coordinates": [ -77.61013, 43.101051 ] } },
{ "type": "Feature", "properties": { "NAME": "MOUNT SAINT MARY COLLEGE", "CITY": "NEWBURGH", "DORM_CAP": 1126 }, "geometry": { "type": "Point", "coordinates": [ -74.012125, 41.51047 ] } },
{ "type": "Feature", "properties": { "NAME": "NASSAU COMMUNITY COLLEGE", "CITY": "GARDEN CITY", "DORM_CAP": -999 }, "geometry": { "type": "Point", "coordinates": [ -73.590735, 40.730475 ] } },
{ "type": "Feature", "properties": { "NAME": "NIAGARA COUNTY COMMUNITY COLLEGE", "CITY": "SANBORN", "DORM_CAP": -999 }, "geometry": { "type": "Point", "coordinates": [ -78.877008, 43.147025 ] } },
{ "type": "Feature", "properties": { "NAME": "ORANGE COUNTY COMMUNITY COLLEGE", "CITY": "MIDDLETOWN", "DORM_CAP": -999 }, "geometry": { "type": "Point", "coordinates": [ -74.426885, 41.439476 ] } },
{ "type": "Feature", "properties": { "NAME": "RENSSELAER POLYTECHNIC INSTITUTE", "CITY": "TROY", "DORM_CAP": 3770 }, "geometry": { "type": "Point", "coordinates": [ -73.678767, 42.728983 ] } },
{ "type": "Feature", "properties": { "NAME": "ST. THOMAS AQUINAS COLLEGE", "CITY": "SPARKILL", "DORM_CAP": 681 }, "geometry": { "type": "Point", "coordinates": [ -73.936842, 41.042192 ] } },
{ "type": "Feature", "properties": { "NAME": "SUNY COLLEGE AT BROCKPORT", "CITY": "BROCKPORT", "DORM_CAP": 2708 }, "geometry": { "type": "Point", "coordinates": [ -77.951508, 43.211851 ] } },
{ "type": "Feature", "properties": { "NAME": "SUNY AT PURCHASE COLLEGE", "CITY": "PURCHASE", "DORM_CAP": 2620 }, "geometry": { "type": "Point", "coordinates": [ -73.701936, 41.049224 ] } },
{ "type": "Feature", "properties": { "NAME": "YESHIVA SHAAREI TORAH OF ROCKLAND", "CITY": "SUFFERN", "DORM_CAP": 120 }, "geometry": { "type": "Point", "coordinates": [ -74.090153, 41.123617 ] } },
{ "type": "Feature", "properties": { "NAME": "LIU HUDSON AT ROCKLAND", "CITY": "ORANGEBURG", "DORM_CAP": -999 }, "geometry": { "type": "Point", "coordinates": [ -73.931178, 41.036648 ] } },
{ "type": "Feature", "properties": { "NAME": "BRYANT & STRATTON COLLEGE-AMHERST", "CITY": "GETZVILLE", "DORM_CAP": -999 }, "geometry": { "type": "Point", "coordinates": [ -78.742815, 43.04083 ] } },
{ "type": "Feature", "properties": { "NAME": "CUNY SCHOOL OF LAW", "CITY": "LONG ISLAND CITY", "DORM_CAP": -999 }, "geometry": { "type": "Point", "coordinates": [ -73.94376, 40.747841 ] } },
{ "type": "Feature", "properties": { "NAME": "SOUTHERN WESTCHESTER BOCES-PRACTICAL NURSING PROGRAM", "CITY": "HARRISON", "DORM_CAP": -999 }, "geometry": { "type": "Point", "coordinates": [ -73.741714, 40.973742 ] } },
{ "type": "Feature", "properties": { "NAME": "ROCKLAND COMMUNITY COLLEGE", "CITY": "SUFFERN", "DORM_CAP": -999 }, "geometry": { "type": "Point", "coordinates": [ -74.086627, 41.133849 ] } },
{ "type": "Feature", "properties": { "NAME": "ULSTER BOCES SCHOOL OF PRACTICAL NURSING", "CITY": "LAKE KATRINE", "DORM_CAP": -999 }, "geometry": { "type": "Point", "coordinates": [ -73.993162, 41.97662 ] } },
{ "type": "Feature", "properties": { "NAME": "MIAMI AD SCHOOL-NEW YORK", "CITY": "ASTORIA", "DORM_CAP": -999 }, "geometry": { "type": "Point", "coordinates": [ -73.925071, 40.755046 ] } },
{ "type": "Feature", "properties": { "NAME": "YESHIVA SHAAR EPHRAIM", "CITY": "MONSEY", "DORM_CAP": 60 }, "geometry": { "type": "Point", "coordinates": [ -74.060832, 41.116903 ] } },
{ "type": "Feature", "properties": { "NAME": "ELYON COLLEGE", "CITY": "BROOKLYN", "DORM_CAP": -999 }, "geometry": { "type": "Point", "coordinates": [ -73.980604, 40.611059 ] } },
{ "type": "Feature", "properties": { "NAME": "MECHON L'HOYROA", "CITY": "MONSEY", "DORM_CAP": -999 }, "geometry": { "type": "Point", "coordinates": [ -74.058116, 41.116998 ] } },
{ "type": "Feature", "properties": { "NAME": "YESHIVA OHR NAFTOLI", "CITY": "NEW WINDSOR", "DORM_CAP": 100 }, "geometry": { "type": "Point", "coordinates": [ -74.046367, 41.457051 ] } },
{ "type": "Feature", "properties": { "NAME": "CARSTEN INSTITUTE OF COSMETOLOGY", "CITY": "NEW YORK", "DORM_CAP": -999 }, "geometry": { "type": "Point", "coordinates": [ -73.980278, 40.751893 ] } },
{ "type": "Feature", "properties": { "NAME": "SHARP EDGEZ BARBER INSTITUTE - BUFFALO", "CITY": "BUFFALO", "DORM_CAP": -999 }, "geometry": { "type": "Point", "coordinates": [ -78.870226, 42.961662 ] } },
{ "type": "Feature", "properties": { "NAME": "MONROE 2 ORLEANS BOCES-CENTER FOR WORKFORCE DEVELOPMENT", "CITY": "ROCHESTER", "DORM_CAP": -999 }, "geometry": { "type": "Point", "coordinates": [ -77.743961, 43.1527 ] } },
{ "type": "Feature", "properties": { "NAME": "YESHIVA KOLLEL TIFERETH ELIZER", "CITY": "BROOKLYN", "DORM_CAP": 28 }, "geometry": { "type": "Point", "coordinates": [ -73.992235, 40.637189 ] } },
{ "type": "Feature", "properties": { "NAME": "AMERICAN MUSICAL AND DRAMATIC ACADEMY", "CITY": "NEW YORK", "DORM_CAP": 941 }, "geometry": { "type": "Point", "coordinates": [ -73.987638, 40.772309 ] } },
{ "type": "Feature", "properties": { "NAME": "BERKELEY COLLEGE-NEW YORK", "CITY": "NEW YORK", "DORM_CAP": -999 }, "geometry": { "type": "Point", "coordinates": [ -73.979434, 40.753993 ] } },
{ "type": "Feature", "properties": { "NAME": "BRAMSON ORT COLLEGE", "CITY": "FOREST HILLS", "DORM_CAP": -999 }, "geometry": { "type": "Point", "coordinates": [ -73.848697, 40.721391 ] } },
{ "type": "Feature", "properties": { "NAME": "ST PAUL'S SCHOOL OF NURSING-QUEENS", "CITY": "REGO PARK", "DORM_CAP": -999 }, "geometry": { "type": "Point", "coordinates": [ -73.858549, 40.729211 ] } },
{ "type": "Feature", "properties": { "NAME": "CENTRAL YESHIVA TOMCHEI TMIMIM LUBAVITZ", "CITY": "BROOKLYN", "DORM_CAP": 310 }, "geometry": { "type": "Point", "coordinates": [ -73.938782, 40.669706 ] } },
{ "type": "Feature", "properties": { "NAME": "CUNY SYSTEM OFFICE", "CITY": "NEW YORK", "DORM_CAP": -999 }, "geometry": { "type": "Point", "coordinates": [ -73.973595, 40.750855 ] } },
{ "type": "Feature", "properties": { "NAME": "METROPOLITAN COLLEGE OF NEW YORK", "CITY": "NEW YORK", "DORM_CAP": -999 }, "geometry": { "type": "Point", "coordinates": [ -74.014677, 40.708592 ] } },
{ "type": "Feature", "properties": { "NAME": "HELENE FULD COLLEGE OF NURSING", "CITY": "NEW YORK", "DORM_CAP": -999 }, "geometry": { "type": "Point", "coordinates": [ -73.943325, 40.802476 ] } },
{ "type": "Feature", "properties": { "NAME": "HILBERT COLLEGE", "CITY": "HAMBURG", "DORM_CAP": 304 }, "geometry": { "type": "Point", "coordinates": [ -78.820205, 42.754636 ] } },
{ "type": "Feature", "properties": { "NAME": "HUNTER BUSINESS SCHOOL", "CITY": "LEVITTOWN", "DORM_CAP": -999 }, "geometry": { "type": "Point", "coordinates": [ -73.500876, 40.727808 ] } },
{ "type": "Feature", "properties": { "NAME": "LIM COLLEGE", "CITY": "NEW YORK", "DORM_CAP": 399 }, "geometry": { "type": "Point", "coordinates": [ -73.975317, 40.759786 ] } },
{ "type": "Feature", "properties": { "NAME": "LONG ISLAND BUSINESS INSTITUTE", "CITY": "FLUSHING", "DORM_CAP": -999 }, "geometry": { "type": "Point", "coordinates": [ -73.829457, 40.760236 ] } },
{ "type": "Feature", "properties": { "NAME": "MARYMOUNT MANHATTAN COLLEGE", "CITY": "NEW YORK", "DORM_CAP": 773 }, "geometry": { "type": "Point", "coordinates": [ -73.95979, 40.768723 ] } },
{ "type": "Feature", "properties": { "NAME": "THE NEW SCHOOL", "CITY": "NEW YORK", "DORM_CAP": 1960 }, "geometry": { "type": "Point", "coordinates": [ -73.997158, 40.735498 ] } },
{ "type": "Feature", "properties": { "NAME": "PLAZA COLLEGE", "CITY": "FOREST HILLS", "DORM_CAP": -999 }, "geometry": { "type": "Point", "coordinates": [ -73.831104, 40.714851 ] } },
{ "type": "Feature", "properties": { "NAME": "ST PAUL'S SCHOOL OF NURSING-STATEN ISLAND", "CITY": "STATEN ISLAND", "DORM_CAP": -999 }, "geometry": { "type": "Point", "coordinates": [ -74.1797, 40.605397 ] } },
{ "type": "Feature", "properties": { "NAME": "UNIVERSITY AT BUFFALO", "CITY": "BUFFALO", "DORM_CAP": 7973 }, "geometry": { "type": "Point", "coordinates": [ -78.78961, 43.001012 ] } },
{ "type": "Feature", "properties": { "NAME": "SUNY EMPIRE STATE COLLEGE", "CITY": "SARATOGA SPRINGS", "DORM_CAP": -999 }, "geometry": { "type": "Point", "coordinates": [ -73.782413, 43.077245 ] } },
{ "type": "Feature", "properties": { "NAME": "SUNY MARITIME COLLEGE", "CITY": "THROGGS NECK", "DORM_CAP": 1460 }, "geometry": { "type": "Point", "coordinates": [ -73.801082, 40.809231 ] } },
{ "type": "Feature", "properties": { "NAME": "TOURO COLLEGE", "CITY": "NEW YORK", "DORM_CAP": 388 }, "geometry": { "type": "Point", "coordinates": [ -73.989488, 40.753362 ] } },
{ "type": "Feature", "properties": { "NAME": "BRYANT & STRATTON COLLEGE-SOUTHTOWNS", "CITY": "ORCHARD PARK", "DORM_CAP": -999 }, "geometry": { "type": "Point", "coordinates": [ -78.76895, 42.790123 ] } },
{ "type": "Feature", "properties": { "NAME": "PACIFIC COLLEGE OF ORIENTAL MEDICINE-NEW YORK", "CITY": "NEW YORK", "DORM_CAP": -999 }, "geometry": { "type": "Point", "coordinates": [ -74.006629, 40.708899 ] } },
{ "type": "Feature", "properties": { "NAME": "NEW YORK COLLEGE OF HEALTH PROFESSIONS", "CITY": "SYOSSET", "DORM_CAP": -999 }, "geometry": { "type": "Point", "coordinates": [ -73.516199, 40.809304 ] } },
{ "type": "Feature", "properties": { "NAME": "METROPOLITAN LEARNING INSTITUTE", "CITY": "REGO PARK", "DORM_CAP": -999 }, "geometry": { "type": "Point", "coordinates": [ -73.858377, 40.729174 ] } },
{ "type": "Feature", "properties": { "NAME": "UTA MESIVTA OF KIRYAS JOEL", "CITY": "MONROE", "DORM_CAP": 800 }, "geometry": { "type": "Point", "coordinates": [ -74.161233, 41.333848 ] } },
{ "type": "Feature", "properties": { "NAME": "THE KING'S COLLEGE", "CITY": "NEW YORK", "DORM_CAP": 359 }, "geometry": { "type": "Point", "coordinates": [ -74.012296, 40.706558 ] } },
{ "type": "Feature", "properties": { "NAME": "MANHATTAN INSTITUTE", "CITY": "NEW YORK", "DORM_CAP": -999 }, "geometry": { "type": "Point", "coordinates": [ -73.977344, 40.754262 ] } },
{ "type": "Feature", "properties": { "NAME": "INSTITUTE OF CULINARY EDUCATION", "CITY": "NEW YORK", "DORM_CAP": -999 }, "geometry": { "type": "Point", "coordinates": [ -74.015157, 40.712988 ] } },
{ "type": "Feature", "properties": { "NAME": "BE'ER YAAKOV TALMUDIC SEMINARY", "CITY": "SPRING VALLEY", "DORM_CAP": 80 }, "geometry": { "type": "Point", "coordinates": [ -74.028052, 41.138936 ] } },
{ "type": "Feature", "properties": { "NAME": "BRYANT & STRATTON COLLEGE-ONLINE", "CITY": "ORCHARD PARK", "DORM_CAP": -999 }, "geometry": { "type": "Point", "coordinates": [ -78.768891, 42.79017 ] } },
{ "type": "Feature", "properties": { "NAME": "BAIS BINYOMIN ACADEMY", "CITY": "MONSEY", "DORM_CAP": -999 }, "geometry": { "type": "Point", "coordinates": [ -74.078888, 41.123071 ] } },
{ "type": "Feature", "properties": { "NAME": "FRANKLIN CAREER INSTITUTE", "CITY": "BROOKLYN", "DORM_CAP": -999 }, "geometry": { "type": "Point", "coordinates": [ -74.012259, 40.642801 ] } },
{ "type": "Feature", "properties": { "NAME": "YESHIVA ZICHRON ARYEH", "CITY": "FAR ROCKAWAY", "DORM_CAP": 32 }, "geometry": { "type": "Point", "coordinates": [ -73.764551, 40.606 ] } },
{ "type": "Feature", "properties": { "NAME": "CENTRAL YESHIVA BETH JOSEPH", "CITY": "BROOKLYN", "DORM_CAP": -999 }, "geometry": { "type": "Point", "coordinates": [ -73.959481, 40.6156 ] } },
{ "type": "Feature", "properties": { "NAME": "YESHIVAS MAHARIT D'SATMAR", "CITY": "MONROE", "DORM_CAP": 30 }, "geometry": { "type": "Point", "coordinates": [ -74.159642, 41.33127 ] } },
{ "type": "Feature", "properties": { "NAME": "FOCUS PERSONAL TRAINING INSTITUTE", "CITY": "NEW YORK", "DORM_CAP": -999 }, "geometry": { "type": "Point", "coordinates": [ -73.991781, 40.74588 ] } },
{ "type": "Feature", "properties": { "NAME": "ELIM BIBLE INSTITUTE AND COLLEGE", "CITY": "LIMA", "DORM_CAP": 175 }, "geometry": { "type": "Point", "coordinates": [ -77.615151, 42.909692 ] } },
{ "type": "Feature", "properties": { "NAME": "FERRARA'S BEAUTY SCHOOL", "CITY": "FOREST HILLS", "DORM_CAP": -999 }, "geometry": { "type": "Point", "coordinates": [ -73.843581, 40.72048 ] } },
{ "type": "Feature", "properties": { "NAME": "NEW YORK LAW SCHOOL", "CITY": "NEW YORK", "DORM_CAP": 59 }, "geometry": { "type": "Point", "coordinates": [ -74.006894, 40.717762 ] } },
{ "type": "Feature", "properties": { "NAME": "WELLS COLLEGE", "CITY": "AURORA", "DORM_CAP": 527 }, "geometry": { "type": "Point", "coordinates": [ -76.696512, 42.744314 ] } },
{ "type": "Feature", "properties": { "NAME": "WORD OF LIFE BIBLE INSTITUTE", "CITY": "POTTERSVILLE", "DORM_CAP": 796 }, "geometry": { "type": "Point", "coordinates": [ -73.812057, 43.730713 ] } },
{ "type": "Feature", "properties": { "NAME": "THE ART INSTITUTE OF NEW YORK CITY", "CITY": "NEW YORK", "DORM_CAP": -999 }, "geometry": { "type": "Point", "coordinates": [ -73.989177, 40.755042 ] } },
{ "type": "Feature", "properties": { "NAME": "NEW AGE TRAINING", "CITY": "NEW YORK", "DORM_CAP": -999 }, "geometry": { "type": "Point", "coordinates": [ -73.99151, 40.748278 ] } },
{ "type": "Feature", "properties": { "NAME": "VEEB NASSAU COUNTY SCHOOL OF PRACTICAL NURSING", "CITY": "HICKSVILLE", "DORM_CAP": -999 }, "geometry": { "type": "Point", "coordinates": [ -73.520524, 40.766564 ] } },
{ "type": "Feature", "properties": { "NAME": "YESHIVA OF FAR ROCKAWAY DERECH AYSON RABBINICAL SEMINARY", "CITY": "FAR ROCKAWAY", "DORM_CAP": 42 }, "geometry": { "type": "Point", "coordinates": [ -73.743901, 40.60049 ] } },
{ "type": "Feature", "properties": { "NAME": "THE JUILLIARD SCHOOL", "CITY": "NEW YORK", "DORM_CAP": 348 }, "geometry": { "type": "Point", "coordinates": [ -73.982913, 40.773725 ] } },
{ "type": "Feature", "properties": { "NAME": "ULSTER COUNTY COMMUNITY COLLEGE", "CITY": "STONE RIDGE", "DORM_CAP": -999 }, "geometry": { "type": "Point", "coordinates": [ -74.128698, 41.851218 ] } },
{ "type": "Feature", "properties": { "NAME": "UNITED TALMUDICAL SEMINARY", "CITY": "BROOKLYN", "DORM_CAP": 400 }, "geometry": { "type": "Point", "coordinates": [ -73.959194, 40.705946 ] } },
{ "type": "Feature", "properties": { "NAME": "THE AILEY SCHOOL", "CITY": "NEW YORK", "DORM_CAP": 40 }, "geometry": { "type": "Point", "coordinates": [ -73.986891, 40.766921 ] } },
{ "type": "Feature", "properties": { "NAME": "CUNY BERNARD M BARUCH COLLEGE", "CITY": "NEW YORK", "DORM_CAP": 414 }, "geometry": { "type": "Point", "coordinates": [ -73.983417, 40.740238 ] } },
{ "type": "Feature", "properties": { "NAME": "MANDL SCHOOL-THE COLLEGE OF ALLIED HEALTH", "CITY": "NEW YORK", "DORM_CAP": -999 }, "geometry": { "type": "Point", "coordinates": [ -73.983749, 40.764351 ] } },
{ "type": "Feature", "properties": { "NAME": "EMPIRE BEAUTY SCHOOL-MANHATTAN", "CITY": "NEW YORK", "DORM_CAP": -999 }, "geometry": { "type": "Point", "coordinates": [ -73.986453, 40.748938 ] } },
{ "type": "Feature", "properties": { "NAME": "TEACHERS COLLEGE AT COLUMBIA UNIVERSITY", "CITY": "NEW YORK", "DORM_CAP": 703 }, "geometry": { "type": "Point", "coordinates": [ -73.960399, 40.810311 ] } },
{ "type": "Feature", "properties": { "NAME": "AESTHETIC SCIENCE INSTITUTE", "CITY": "LATHAM", "DORM_CAP": -999 }, "geometry": { "type": "Point", "coordinates": [ -73.794885, 42.761904 ] } },
{ "type": "Feature", "properties": { "NAME": "PACE UNIVERSITY-NEW YORK", "CITY": "NEW YORK", "DORM_CAP": 3726 }, "geometry": { "type": "Point", "coordinates": [ -74.004874, 40.71171 ] } },
{ "type": "Feature", "properties": { "NAME": "YESHIVA UNIVERSITY", "CITY": "NEW YORK", "DORM_CAP": 2286 }, "geometry": { "type": "Point", "coordinates": [ -73.928541, 40.8508 ] } },
{ "type": "Feature", "properties": { "NAME": "CUNY HUNTER COLLEGE", "CITY": "NEW YORK", "DORM_CAP": 650 }, "geometry": { "type": "Point", "coordinates": [ -73.964795, 40.768669 ] } },
{ "type": "Feature", "properties": { "NAME": "TRI-STATE COLLEGE OF ACUPUNCTURE", "CITY": "NEW YORK", "DORM_CAP": -999 }, "geometry": { "type": "Point", "coordinates": [ -74.002085, 40.739862 ] } },
{ "type": "Feature", "properties": { "NAME": "VAUGHN COLLEGE OF AERONAUTICS AND TECHNOLOGY", "CITY": "FLUSHING", "DORM_CAP": 200 }, "geometry": { "type": "Point", "coordinates": [ -73.881721, 40.768348 ] } },
{ "type": "Feature", "properties": { "NAME": "YESHIVA OF NITRA RABBINICAL COLLEGE", "CITY": "MOUNT KISCO", "DORM_CAP": 300 }, "geometry": { "type": "Point", "coordinates": [ -73.728423, 41.22085 ] } },
{ "type": "Feature", "properties": { "NAME": "AMERICAN ACADEMY MCALLISTER INSTITUTE OF FUNERAL SERVICE", "CITY": "NEW YORK", "DORM_CAP": -999 }, "geometry": { "type": "Point", "coordinates": [ -73.993782, 40.769031 ] } },
{ "type": "Feature", "properties": { "NAME": "AMERICAN BEAUTY SCHOOL", "CITY": "BRONX", "DORM_CAP": -999 }, "geometry": { "type": "Point", "coordinates": [ -73.86071, 40.835231 ] } },
{ "type": "Feature", "properties": { "NAME": "GEMOLOGICAL INSTITUTE OF AMERICA-NEW YORK", "CITY": "NEW YORK", "DORM_CAP": -999 }, "geometry": { "type": "Point", "coordinates": [ -73.980647, 40.751351 ] } },
{ "type": "Feature", "properties": { "NAME": "MEMORIAL COLLEGE OF NURSING", "CITY": "ALBANY", "DORM_CAP": -999 }, "geometry": { "type": "Point", "coordinates": [ -73.748821, 42.674068 ] } },
{ "type": "Feature", "properties": { "NAME": "NEW YORK UNIVERSITY", "CITY": "NEW YORK", "DORM_CAP": 13075 }, "geometry": { "type": "Point", "coordinates": [ -73.997264, 40.729452 ] } },
{ "type": "Feature", "properties": { "NAME": "SWEDISH INSTITUTE A COLLEGE OF HEALTH SCIENCES", "CITY": "NEW YORK", "DORM_CAP": -999 }, "geometry": { "type": "Point", "coordinates": [ -73.99567, 40.746384 ] } },
{ "type": "Feature", "properties": { "NAME": "UNITED STATES MERCHANT MARINE ACADEMY", "CITY": "KINGS POINT", "DORM_CAP": 939 }, "geometry": { "type": "Point", "coordinates": [ -73.762534, 40.812154 ] } },
{ "type": "Feature", "properties": { "NAME": "UTICA COLLEGE", "CITY": "UTICA", "DORM_CAP": 1034 }, "geometry": { "type": "Point", "coordinates": [ -75.276333, 43.094481 ] } },
{ "type": "Feature", "properties": { "NAME": "VASSAR COLLEGE", "CITY": "POUGHKEEPSIE", "DORM_CAP": 2380 }, "geometry": { "type": "Point", "coordinates": [ -73.897581, 41.685997 ] } },
{ "type": "Feature", "properties": { "NAME": "VILLA MARIA COLLEGE", "CITY": "BUFFALO", "DORM_CAP": -999 }, "geometry": { "type": "Point", "coordinates": [ -78.797125, 42.91239 ] } },
{ "type": "Feature", "properties": { "NAME": "ALBANY BOCES-ADULT PRACTICAL NURSING PROGRAM", "CITY": "ALBANY", "DORM_CAP": -999 }, "geometry": { "type": "Point", "coordinates": [ -73.823331, 42.737195 ] } },
{ "type": "Feature", "properties": { "NAME": "NEIGHBORHOOD PLAYHOUSE SCHOOL OF THE THEATER", "CITY": "NEW YORK CITY", "DORM_CAP": -999 }, "geometry": { "type": "Point", "coordinates": [ -73.965332, 40.756613 ] } },
{ "type": "Feature", "properties": { "NAME": "WASHINGTON SARATOGA WARREN HAMILTON ESSEX BOCES-PRACTICAL NURSING PROGRAM", "CITY": "HUDSON FALLS", "DORM_CAP": -999 }, "geometry": { "type": "Point", "coordinates": [ -73.594331, 43.32149 ] } },
{ "type": "Feature", "properties": { "NAME": "NEW YORK ACADEMY OF ART", "CITY": "NEW YORK", "DORM_CAP": -999 }, "geometry": { "type": "Point", "coordinates": [ -74.006019, 40.718388 ] } },
{ "type": "Feature", "properties": { "NAME": "ADIRONDACK COMMUNITY COLLEGE", "CITY": "QUEENSBURY", "DORM_CAP": 400 }, "geometry": { "type": "Point", "coordinates": [ -73.655178, 43.354068 ] } },
{ "type": "Feature", "properties": { "NAME": "JOFFREY BALLET SCHOOL", "CITY": "NEW YORK", "DORM_CAP": 40 }, "geometry": { "type": "Point", "coordinates": [ -73.998566, 40.734545 ] } },
{ "type": "Feature", "properties": { "NAME": "APEX TECHNICAL SCHOOL", "CITY": "LONG ISLAND CITY", "DORM_CAP": -999 }, "geometry": { "type": "Point", "coordinates": [ -73.941622, 40.750512 ] } },
{ "type": "Feature", "properties": { "NAME": "BANK STREET COLLEGE OF EDUCATION", "CITY": "NEW YORK", "DORM_CAP": -999 }, "geometry": { "type": "Point", "coordinates": [ -73.966643, 40.805604 ] } },
{ "type": "Feature", "properties": { "NAME": "COOPER UNION FOR THE ADVANCEMENT OF SCIENCE AND ART", "CITY": "NEW YORK", "DORM_CAP": 170 }, "geometry": { "type": "Point", "coordinates": [ -73.990516, 40.72938 ] } },
{ "type": "Feature", "properties": { "NAME": "CUNY JOHN JAY COLLEGE OF CRIMINAL JUSTICE", "CITY": "NEW YORK", "DORM_CAP": 176 }, "geometry": { "type": "Point", "coordinates": [ -73.988403, 40.770346 ] } },
{ "type": "Feature", "properties": { "NAME": "ELMIRA COLLEGE", "CITY": "ELMIRA", "DORM_CAP": 1128 }, "geometry": { "type": "Point", "coordinates": [ -76.816589, 42.096702 ] } },
{ "type": "Feature", "properties": { "NAME": "THE GENERAL THEOLOGICAL SEMINARY", "CITY": "NEW YORK", "DORM_CAP": 68 }, "geometry": { "type": "Point", "coordinates": [ -74.003767, 40.745558 ] } },
{ "type": "Feature", "properties": { "NAME": "HERKIMER COUNTY COMMUNITY COLLEGE", "CITY": "HERKIMER", "DORM_CAP": 648 }, "geometry": { "type": "Point", "coordinates": [ -75.007206, 43.03273 ] } },
{ "type": "Feature", "properties": { "NAME": "JEWISH THEOLOGICAL SEMINARY OF AMERICA", "CITY": "NEW YORK", "DORM_CAP": 152 }, "geometry": { "type": "Point", "coordinates": [ -73.960287, 40.811959 ] } },
{ "type": "Feature", "properties": { "NAME": "UPSTATE MEDICAL UNIVERSITY", "CITY": "SYRACUSE", "DORM_CAP": 276 }, "geometry": { "type": "Point", "coordinates": [ -76.139661, 43.042253 ] } },
{ "type": "Feature", "properties": { "NAME": "TOMPKINS CORTLAND COMMUNITY COLLEGE", "CITY": "DRYDEN", "DORM_CAP": 816 }, "geometry": { "type": "Point", "coordinates": [ -76.287586, 42.502006 ] } },
{ "type": "Feature", "properties": { "NAME": "UNITED STATES MILITARY ACADEMY", "CITY": "WEST  POINT", "DORM_CAP": 4700 }, "geometry": { "type": "Point", "coordinates": [ -73.956804, 41.390882 ] } },
{ "type": "Feature", "properties": { "NAME": "WAGNER COLLEGE", "CITY": "STATEN ISLAND", "DORM_CAP": 1494 }, "geometry": { "type": "Point", "coordinates": [ -74.090869, 40.614496 ] } },
{ "type": "Feature", "properties": { "NAME": "WEBB INSTITUTE", "CITY": "GLEN COVE", "DORM_CAP": 110 }, "geometry": { "type": "Point", "coordinates": [ -73.644902, 40.884453 ] } },
{ "type": "Feature", "properties": { "NAME": "ADIRONDACK BEAUTY SCHOOL", "CITY": "GLENS FALLS", "DORM_CAP": -999 }, "geometry": { "type": "Point", "coordinates": [ -73.633012, 43.318253 ] } },
{ "type": "Feature", "properties": { "NAME": "WESTERN SUFFOLK BOCES", "CITY": "NORTHPORT", "DORM_CAP": -999 }, "geometry": { "type": "Point", "coordinates": [ -73.343691, 40.877076 ] } },
{ "type": "Feature", "properties": { "NAME": "NEW YORK CONSERVATORY FOR DRAMATIC ARTS", "CITY": "NEW YORK", "DORM_CAP": -999 }, "geometry": { "type": "Point", "coordinates": [ -73.993388, 40.740148 ] } },
{ "type": "Feature", "properties": { "NAME": "LIA SCHORR INSTITUTE OF COSMETIC SKIN CARE TRAINING", "CITY": "NEW YORK", "DORM_CAP": -999 }, "geometry": { "type": "Point", "coordinates": [ -73.969644, 40.760598 ] } },
{ "type": "Feature", "properties": { "NAME": "TROCAIRE COLLEGE", "CITY": "BUFFALO", "DORM_CAP": -999 }, "geometry": { "type": "Point", "coordinates": [ -78.812296, 42.846585 ] } },
{ "type": "Feature", "properties": { "NAME": "WESTCHESTER SCHOOL OF BEAUTY CULTURE", "CITY": "MOUNT VERNON", "DORM_CAP": -999 }, "geometry": { "type": "Point", "coordinates": [ -73.837751, 40.912476 ] } },
{ "type": "Feature", "properties": { "NAME": "WAYNE FINGER LAKES BOCES-PRACTICAL NURSING PROGRAM", "CITY": "NEWARK", "DORM_CAP": -999 }, "geometry": { "type": "Point", "coordinates": [ -77.081859, 43.038103 ] } },
{ "type": "Feature", "properties": { "NAME": "THE SALON PROFESSIONAL ACADEMY-TONAWANDA", "CITY": "TONAWANDA", "DORM_CAP": -999 }, "geometry": { "type": "Point", "coordinates": [ -78.825367, 42.98208 ] } },
{ "type": "Feature", "properties": { "NAME": "ACADEMY OF COSMETOLOGY AND ESTHETICS NYC", "CITY": "STATEN ISLAND", "DORM_CAP": -999 }, "geometry": { "type": "Point", "coordinates": [ -74.114517, 40.573236 ] } },
{ "type": "Feature", "properties": { "NAME": "ALBANY COLLEGE OF PHARMACY AND HEALTH SCIENCES", "CITY": "ALBANY", "DORM_CAP": 750 }, "geometry": { "type": "Point", "coordinates": [ -73.778607, 42.651916 ] } },
{ "type": "Feature", "properties": { "NAME": "ALBANY MEDICAL COLLEGE", "CITY": "ALBANY", "DORM_CAP": -999 }, "geometry": { "type": "Point", "coordinates": [ -73.777388, 42.653972 ] } },
{ "type": "Feature", "properties": { "NAME": "ALLEN SCHOOL-BROOKLYN", "CITY": "BROOKLYN", "DORM_CAP": -999 }, "geometry": { "type": "Point", "coordinates": [ -73.991461, 40.693797 ] } },
{ "type": "Feature", "properties": { "NAME": "UNIVERSITY OF ROCHESTER", "CITY": "ROCHESTER", "DORM_CAP": 6027 }, "geometry": { "type": "Point", "coordinates": [ -77.631202, 43.126397 ] } },
{ "type": "Feature", "properties": { "NAME": "THE SAGE COLLEGES", "CITY": "TROY", "DORM_CAP": 848 }, "geometry": { "type": "Point", "coordinates": [ -73.692896, 42.728286 ] } },
{ "type": "Feature", "properties": { "NAME": "ALFRED UNIVERSITY", "CITY": "ALFRED", "DORM_CAP": 1486 }, "geometry": { "type": "Point", "coordinates": [ -77.78754, 42.253289 ] } },
{ "type": "Feature", "properties": { "NAME": "COLUMBIA UNIVERSITY IN THE CITY OF NEW YORK", "CITY": "NEW YORK", "DORM_CAP": 12953 }, "geometry": { "type": "Point", "coordinates": [ -73.961885, 40.808286 ] } },
{ "type": "Feature", "properties": { "NAME": "UNIFICATION THEOLOGICAL SEMINARY", "CITY": "BARRYTOWN", "DORM_CAP": -999 }, "geometry": { "type": "Point", "coordinates": [ -73.924306, 42.003336 ] } },
{ "type": "Feature", "properties": { "NAME": "ALLEN SCHOOL-JAMAICA", "CITY": "JAMAICA", "DORM_CAP": -999 }, "geometry": { "type": "Point", "coordinates": [ -73.796295, 40.704694 ] } },
{ "type": "Feature", "properties": { "NAME": "BARNARD COLLEGE", "CITY": "NEW YORK", "DORM_CAP": 2263 }, "geometry": { "type": "Point", "coordinates": [ -73.964027, 40.809137 ] } },
{ "type": "Feature", "properties": { "NAME": "CIRCLE IN THE SQUARE THEATRE SCHOOL", "CITY": "NEW YORK", "DORM_CAP": -999 }, "geometry": { "type": "Point", "coordinates": [ -73.984607, 40.762059 ] } },
{ "type": "Feature", "properties": { "NAME": "CUNY GRADUATE SCHOOL AND UNIVERSITY CENTER", "CITY": "NEW YORK", "DORM_CAP": 111 }, "geometry": { "type": "Point", "coordinates": [ -73.983575, 40.748503 ] } },
{ "type": "Feature", "properties": { "NAME": "FASHION INSTITUTE OF TECHNOLOGY", "CITY": "NEW YORK", "DORM_CAP": 2300 }, "geometry": { "type": "Point", "coordinates": [ -73.994781, 40.74731 ] } },
{ "type": "Feature", "properties": { "NAME": "THE INTERNATIONAL CULINARY CENTER", "CITY": "NEW YORK", "DORM_CAP": -999 }, "geometry": { "type": "Point", "coordinates": [ -74.00009, 40.720817 ] } },
{ "type": "Feature", "properties": { "NAME": "INSTITUTE OF AUDIO RESEARCH", "CITY": "NEW YORK", "DORM_CAP": -999 }, "geometry": { "type": "Point", "coordinates": [ -73.993808, 40.733027 ] } },
{ "type": "Feature", "properties": { "NAME": "MANHATTAN SCHOOL OF MUSIC", "CITY": "NEW YORK", "DORM_CAP": 500 }, "geometry": { "type": "Point", "coordinates": [ -73.961691, 40.812341 ] } },
{ "type": "Feature", "properties": { "NAME": "ICAHN SCHOOL OF MEDICINE AT MOUNT SINAI", "CITY": "NEW YORK", "DORM_CAP": 739 }, "geometry": { "type": "Point", "coordinates": [ -73.953445, 40.789801 ] } },
{ "type": "Feature", "properties": { "NAME": "NEW YORK SCHOOL OF INTERIOR DESIGN", "CITY": "NEW YORK", "DORM_CAP": 17 }, "geometry": { "type": "Point", "coordinates": [ -73.962404, 40.768615 ] } },
{ "type": "Feature", "properties": { "NAME": "UNION THEOLOGICAL SEMINARY IN THE CITY OF NEW YORK", "CITY": "NEW YORK", "DORM_CAP": 174 }, "geometry": { "type": "Point", "coordinates": [ -73.96212, 40.811461 ] } },
{ "type": "Feature", "properties": { "NAME": "HEBREW UNION COLLEGE-JEWISH INSTITUTE OF RELIGION", "CITY": "NEW YORK", "DORM_CAP": -999 }, "geometry": { "type": "Point", "coordinates": [ -73.994499, 40.728938 ] } },
{ "type": "Feature", "properties": { "NAME": "STUDIO JEWELERS", "CITY": "NEW YORK", "DORM_CAP": -999 }, "geometry": { "type": "Point", "coordinates": [ -73.983774, 40.745464 ] } },
{ "type": "Feature", "properties": { "NAME": "ACE INSTITUTE OF TECHNOLOGY", "CITY": "NEW YORK", "DORM_CAP": -999 }, "geometry": { "type": "Point", "coordinates": [ -73.993346, 40.753669 ] } },
{ "type": "Feature", "properties": { "NAME": "AMERICAN ACADEMY OF DRAMATIC ARTS-NEW YORK", "CITY": "NEW YORK", "DORM_CAP": 143 }, "geometry": { "type": "Point", "coordinates": [ -73.984843, 40.745545 ] } },
{ "type": "Feature", "properties": { "NAME": "WEILL CORNELL MEDICAL COLLEGE", "CITY": "NEW YORK", "DORM_CAP": 971 }, "geometry": { "type": "Point", "coordinates": [ -73.954738, 40.764949 ] } },
{ "type": "Feature", "properties": { "NAME": "ROCKEFELLER UNIVERSITY", "CITY": "NEW YORK", "DORM_CAP": 232 }, "geometry": { "type": "Point", "coordinates": [ -73.954912, 40.762927 ] } },
{ "type": "Feature", "properties": { "NAME": "SUNY COLLEGE OF OPTOMETRY", "CITY": "NEW YORK", "DORM_CAP": -999 }, "geometry": { "type": "Point", "coordinates": [ -73.982236, 40.754465 ] } },
{ "type": "Feature", "properties": { "NAME": "SCHOOL OF VISUAL ARTS", "CITY": "NEW YORK", "DORM_CAP": 1229 }, "geometry": { "type": "Point", "coordinates": [ -73.98224, 40.738742 ] } },
{ "type": "Feature", "properties": { "NAME": "WOOD TOBE-COBURN SCHOOL", "CITY": "NEW  YORK", "DORM_CAP": -999 }, "geometry": { "type": "Point", "coordinates": [ -73.981291, 40.751775 ] } },
{ "type": "Feature", "properties": { "NAME": "ALBANY LAW SCHOOL", "CITY": "ALBANY", "DORM_CAP": -999 }, "geometry": { "type": "Point", "coordinates": [ -73.777164, 42.651369 ] } },
{ "type": "Feature", "properties": { "NAME": "ARNOT OGDEN MEDICAL CENTER", "CITY": "ELMIRA", "DORM_CAP": -999 }, "geometry": { "type": "Point", "coordinates": [ -76.827861, 42.100546 ] } },
{ "type": "Feature", "properties": { "NAME": "BORICUA COLLEGE", "CITY": "NEW YORK", "DORM_CAP": -999 }, "geometry": { "type": "Point", "coordinates": [ -73.9458, 40.833434 ] } },
{ "type": "Feature", "properties": { "NAME": "CUNY BOROUGH OF MANHATTAN COMMUNITY COLLEGE", "CITY": "NEW YORK", "DORM_CAP": -999 }, "geometry": { "type": "Point", "coordinates": [ -74.011826, 40.71879 ] } },
{ "type": "Feature", "properties": { "NAME": "CUNY CITY COLLEGE", "CITY": "NEW YORK", "DORM_CAP": 590 }, "geometry": { "type": "Point", "coordinates": [ -73.95055, 40.819794 ] } },
{ "type": "Feature", "properties": { "NAME": "NEW YORK COLLEGE OF PODIATRIC MEDICINE", "CITY": "NEW YORK", "DORM_CAP": 75 }, "geometry": { "type": "Point", "coordinates": [ -73.940306, 40.804899 ] } },
{ "type": "Feature", "properties": { "NAME": "UNION COLLEGE", "CITY": "SCHENECTADY", "DORM_CAP": 2015 }, "geometry": { "type": "Point", "coordinates": [ -73.928498, 42.817578 ] } },
{ "type": "Feature", "properties": { "NAME": "CAREER SCHOOL OF NY", "CITY": "STATEN ISLAND", "DORM_CAP": -999 }, "geometry": { "type": "Point", "coordinates": [ -74.078168, 40.641352 ] } },
{ "type": "Feature", "properties": { "NAME": "NEW YORK THEOLOGICAL SEMINARY", "CITY": "NEW YORK", "DORM_CAP": -999 }, "geometry": { "type": "Point", "coordinates": [ -73.963785, 40.810877 ] } },
{ "type": "Feature", "properties": { "NAME": "EDP SCHOOL", "CITY": "BROOKLYN", "DORM_CAP": -999 }, "geometry": { "type": "Point", "coordinates": [ -73.952956, 40.585962 ] } },
{ "type": "Feature", "properties": { "NAME": "NEW YORK MEDICAL CAREER TRAINING CENTER", "CITY": "FLUSHING", "DORM_CAP": -999 }, "geometry": { "type": "Point", "coordinates": [ -73.831375, 40.762718 ] } },
{ "type": "Feature", "properties": { "NAME": "ONONDAGA SCHOOL OF THERAPEUTIC MASSAGE-SYRACUSE", "CITY": "SYRACUSE", "DORM_CAP": -999 }, "geometry": { "type": "Point", "coordinates": [ -76.140467, 43.047706 ] } },
{ "type": "Feature", "properties": { "NAME": "FINGER LAKES SCHOOL OF MASSAGE", "CITY": "ITHACA", "DORM_CAP": -999 }, "geometry": { "type": "Point", "coordinates": [ -76.496181, 42.43935 ] } },
{ "type": "Feature", "properties": { "NAME": "SAE INSTITUTE OF TECHNOLOGY-NEW YORK", "CITY": "NEW YORK", "DORM_CAP": -999 }, "geometry": { "type": "Point", "coordinates": [ -73.988504, 40.749635 ] } },
{ "type": "Feature", "properties": { "NAME": "JOHN PAOLO'S XTREME BEAUTY INSTITUTE-GOLDWELL PRODUCT ARTISTRY", "CITY": "LATHAM", "DORM_CAP": -999 }, "geometry": { "type": "Point", "coordinates": [ -73.754603, 42.761774 ] } },
{ "type": "Feature", "properties": { "NAME": "BRITTANY BEAUTY ACADEMY", "CITY": "NEW YORK", "DORM_CAP": -999 }, "geometry": { "type": "Point", "coordinates": [ -73.992381, 40.752971 ] } },
{ "type": "Feature", "properties": { "NAME": "ONONDAGA SCHOOL OF THERAPEUTIC MASSAGE-ROCHESTER", "CITY": "ROCHESTER", "DORM_CAP": -999 }, "geometry": { "type": "Point", "coordinates": [ -77.584781, 43.159086 ] } },
{ "type": "Feature", "properties": { "NAME": "THE COLLECTIVE SCHOOL OF MUSIC", "CITY": "NEW YORK", "DORM_CAP": -999 }, "geometry": { "type": "Point", "coordinates": [ -73.995722, 40.740412 ] } },
{ "type": "Feature", "properties": { "NAME": "LONG ISLAND NAIL & SKIN CARE INSTITUTE", "CITY": "LEVITTOWN", "DORM_CAP": -999 }, "geometry": { "type": "Point", "coordinates": [ -73.49901, 40.725905 ] } },
{ "type": "Feature", "properties": { "NAME": "FINGER LAKES HEALTH COLLEGE OF NURSING", "CITY": "GENEVA", "DORM_CAP": -999 }, "geometry": { "type": "Point", "coordinates": [ -76.98784, 42.876431 ] } },
{ "type": "Feature", "properties": { "NAME": "CHRISTIE'S EDUCATION", "CITY": "NEW YORK", "DORM_CAP": -999 }, "geometry": { "type": "Point", "coordinates": [ -73.981689, 40.754185 ] } },
{ "type": "Feature", "properties": { "NAME": "STELLA AND CHARLES GUTTMAN COMMUNITY COLLEGE", "CITY": "NEW YORK", "DORM_CAP": -999 }, "geometry": { "type": "Point", "coordinates": [ -73.984055, 40.75303 ] } },
{ "type": "Feature", "properties": { "NAME": "NEW YORK SCHOOL OF ESTHETICS & DAY SPA", "CITY": "WHITE PLAINS", "DORM_CAP": -999 }, "geometry": { "type": "Point", "coordinates": [ -73.781183, 41.035422 ] } },
{ "type": "Feature", "properties": { "NAME": "LONG ISLAND BARBER INSTITUTE", "CITY": "HEMPSTEAD", "DORM_CAP": -999 }, "geometry": { "type": "Point", "coordinates": [ -73.615268, 40.699735 ] } },
{ "type": "Feature", "properties": { "NAME": "LEON STUDIO ONE SCHOOL OF HAIR DESIGN & CAREER TRAINING CENTER", "CITY": "NORTH TONAWANDA", "DORM_CAP": -999 }, "geometry": { "type": "Point", "coordinates": [ -78.874112, 43.0232 ] } },
{ "type": "Feature", "properties": { "NAME": "DIGITAL FILM ACADEMY", "CITY": "NEW YORK", "DORM_CAP": -999 }, "geometry": { "type": "Point", "coordinates": [ -73.99108, 40.760072 ] } },
{ "type": "Feature", "properties": { "NAME": "BARD COLLEGE", "CITY": "ANNANDALE-ON-HUDSON", "DORM_CAP": 1400 }, "geometry": { "type": "Point", "coordinates": [ -73.910023, 42.021544 ] } },
{ "type": "Feature", "properties": { "NAME": "LIU-UNIVERSITY CENTER CAMPUS", "CITY": "BROOKVILLE", "DORM_CAP": -999 }, "geometry": { "type": "Point", "coordinates": [ -73.596956, 40.820458 ] } },
{ "type": "Feature", "properties": { "NAME": "LONG ISLAND BEAUTY SCHOOL-HEMPSTEAD", "CITY": "HEMPSTEAD", "DORM_CAP": -999 }, "geometry": { "type": "Point", "coordinates": [ -73.629414, 40.707801 ] } },
{ "type": "Feature", "properties": { "NAME": "LIU BRENTWOOD", "CITY": "BRENTWOOD", "DORM_CAP": -999 }, "geometry": { "type": "Point", "coordinates": [ -73.269771, 40.799667 ] } },
{ "type": "Feature", "properties": { "NAME": "NEW SCHOOL OF RADIO AND TELEVISION", "CITY": "ALBANY", "DORM_CAP": -999 }, "geometry": { "type": "Point", "coordinates": [ -73.809903, 42.720597 ] } },
{ "type": "Feature", "properties": { "NAME": "NEW YORK MEDICAL COLLEGE", "CITY": "VALHALLA", "DORM_CAP": 504 }, "geometry": { "type": "Point", "coordinates": [ -73.811241, 41.084261 ] } },
{ "type": "Feature", "properties": { "NAME": "ROBERTS WESLEYAN COLLEGE", "CITY": "ROCHESTER", "DORM_CAP": 712 }, "geometry": { "type": "Point", "coordinates": [ -77.798498, 43.125755 ] } },
{ "type": "Feature", "properties": { "NAME": "ROCHESTER INSTITUTE OF TECHNOLOGY", "CITY": "ROCHESTER", "DORM_CAP": 7243 }, "geometry": { "type": "Point", "coordinates": [ -77.673854, 43.084436 ] } },
{ "type": "Feature", "properties": { "NAME": "SAINT ELIZABETH COLLEGE OF NURSING", "CITY": "UTICA", "DORM_CAP": -999 }, "geometry": { "type": "Point", "coordinates": [ -75.265888, 43.082041 ] } },
{ "type": "Feature", "properties": { "NAME": "SAINT JOHN FISHER COLLEGE", "CITY": "ROCHESTER", "DORM_CAP": 1415 }, "geometry": { "type": "Point", "coordinates": [ -77.513638, 43.117464 ] } },
{ "type": "Feature", "properties": { "NAME": "NEW YORK CAREER INSTITUTE", "CITY": "NEW YORK", "DORM_CAP": -999 }, "geometry": { "type": "Point", "coordinates": [ -74.008316, 40.713178 ] } },
{ "type": "Feature", "properties": { "NAME": "BRANFORD HALL CAREER INSTITUTE-BOHEMIA CAMPUS", "CITY": "BOHEMIA", "DORM_CAP": -999 }, "geometry": { "type": "Point", "coordinates": [ -73.093869, 40.777825 ] } },
{ "type": "Feature", "properties": { "NAME": "THE COLLEGE OF WESTCHESTER", "CITY": "WHITE PLAINS", "DORM_CAP": -999 }, "geometry": { "type": "Point", "coordinates": [ -73.784404, 41.033687 ] } },
{ "type": "Feature", "properties": { "NAME": "YESHIVA KARLIN STOLIN", "CITY": "BROOKLYN", "DORM_CAP": 50 }, "geometry": { "type": "Point", "coordinates": [ -73.983373, 40.624918 ] } },
{ "type": "Feature", "properties": { "NAME": "YESHIVA DERECH CHAIM", "CITY": "BROOKLYN", "DORM_CAP": 84 }, "geometry": { "type": "Point", "coordinates": [ -73.979757, 40.636889 ] } },
{ "type": "Feature", "properties": { "NAME": "CENTER FOR INSTRUCTION TECHNOLOGY & INNOVATION (CITI)", "CITY": "MEXICO", "DORM_CAP": -999 }, "geometry": { "type": "Point", "coordinates": [ -76.259308, 43.457841 ] } },
{ "type": "Feature", "properties": { "NAME": "LONG ISLAND BEAUTY SCHOOL-HAUPPAUGE", "CITY": "HAUPPAUGE", "DORM_CAP": -999 }, "geometry": { "type": "Point", "coordinates": [ -73.201722, 40.827293 ] } },
{ "type": "Feature", "properties": { "NAME": "SEMINAR L'MOROS BAIS YAAKOV", "CITY": "BROOKLYN", "DORM_CAP": -999 }, "geometry": { "type": "Point", "coordinates": [ -73.985467, 40.634807 ] } },
{ "type": "Feature", "properties": { "NAME": "CATTARAUGUS ALLEGANY BOCES-PRACTICAL NURSING PROGRAM", "CITY": "OLEAN", "DORM_CAP": -999 }, "geometry": { "type": "Point", "coordinates": [ -78.405395, 42.093196 ] } },
{ "type": "Feature", "properties": { "NAME": "GENESEE VALLEY BOCES-PRACTICAL NURSING PROGRAM", "CITY": "BATAVIA", "DORM_CAP": -999 }, "geometry": { "type": "Point", "coordinates": [ -78.182909, 43.014665 ] } },
{ "type": "Feature", "properties": { "NAME": "HAMILTON FULTON MONTGOMERY BOCES-PRACTICAL NURSING PROGRAM", "CITY": "JOHNSTOWN", "DORM_CAP": -999 }, "geometry": { "type": "Point", "coordinates": [ -74.298686, 42.984198 ] } },
{ "type": "Feature", "properties": { "NAME": "ORANGE ULSTER BOCES-PRACTICAL NURSING PROGRAM", "CITY": "GOSHEN", "DORM_CAP": -999 }, "geometry": { "type": "Point", "coordinates": [ -74.321945, 41.389284 ] } },
{ "type": "Feature", "properties": { "NAME": "EASTERN SUFFOLK BOCES", "CITY": "BRENTWOOD", "DORM_CAP": -999 }, "geometry": { "type": "Point", "coordinates": [ -73.23928, 40.7718 ] } },
{ "type": "Feature", "properties": { "NAME": "MANHATTAN SCHOOL OF COMPUTER TECHNOLOGY", "CITY": "BROOKLYN,", "DORM_CAP": -999 }, "geometry": { "type": "Point", "coordinates": [ -73.967148, 40.634492 ] } },
{ "type": "Feature", "properties": { "NAME": "MERKAZ BNOS-BUSINESS SCHOOL", "CITY": "BROOKLYN", "DORM_CAP": -999 }, "geometry": { "type": "Point", "coordinates": [ -73.997124, 40.601426 ] } },
{ "type": "Feature", "properties": { "NAME": "CAYUGA ONONDAGA BOCES-PRACTICAL NURSING PROGRAM", "CITY": "AUBURN", "DORM_CAP": -999 }, "geometry": { "type": "Point", "coordinates": [ -76.588066, 42.941873 ] } },
{ "type": "Feature", "properties": { "NAME": "NEW YORK INSTITUTE OF MASSAGE INC", "CITY": "WILLIAMSVILLE", "DORM_CAP": -999 }, "geometry": { "type": "Point", "coordinates": [ -78.695815, 42.976035 ] } },
{ "type": "Feature", "properties": { "NAME": "DUTCHESS BOCES-PRACTICAL NURSING PROGRAM", "CITY": "POUGHKEEPSIE", "DORM_CAP": -999 }, "geometry": { "type": "Point", "coordinates": [ -73.866586, 41.742609 ] } },
{ "type": "Feature", "properties": { "NAME": "ONONDAGA CORTLAND MADISON BOCES", "CITY": "LIVERPOOL", "DORM_CAP": -999 }, "geometry": { "type": "Point", "coordinates": [ -76.203875, 43.115889 ] } },
{ "type": "Feature", "properties": { "NAME": "BEIS MEDRASH HEICHAL DOVID", "CITY": "FAR ROCKAWAY", "DORM_CAP": 125 }, "geometry": { "type": "Point", "coordinates": [ -73.751509, 40.596827 ] } },
{ "type": "Feature", "properties": { "NAME": "BRANFORD HALL CAREER INSTITUTE-ALBANY CAMPUS", "CITY": "ALBANY", "DORM_CAP": -999 }, "geometry": { "type": "Point", "coordinates": [ -73.761767, 42.656424 ] } },
{ "type": "Feature", "properties": { "NAME": "CENTER FOR NATURAL WELLNESS SCHOOL OF MASSAGE THERAPY", "CITY": "ALBANY", "DORM_CAP": -999 }, "geometry": { "type": "Point", "coordinates": [ -73.805687, 42.72093 ] } },
{ "type": "Feature", "properties": { "NAME": "LIU RIVERHEAD", "CITY": "RIVERHEAD", "DORM_CAP": -999 }, "geometry": { "type": "Point", "coordinates": [ -72.6991, 40.876143 ] } },
{ "type": "Feature", "properties": { "NAME": "DUTCHESS COMMUNITY COLLEGE", "CITY": "POUGHKEEPSIE", "DORM_CAP": 465 }, "geometry": { "type": "Point", "coordinates": [ -73.906206, 41.725539 ] } },
{ "type": "Feature", "properties": { "NAME": "MARIST COLLEGE", "CITY": "POUGHKEEPSIE", "DORM_CAP": 3665 }, "geometry": { "type": "Point", "coordinates": [ -73.934342, 41.721955 ] } },
{ "type": "Feature", "properties": { "NAME": "ISLAND DRAFTING AND TECHNICAL INSTITUTE", "CITY": "AMITYVILLE", "DORM_CAP": -999 }, "geometry": { "type": "Point", "coordinates": [ -73.417123, 40.675466 ] } },
{ "type": "Feature", "properties": { "NAME": "ADELPHI UNIVERSITY", "CITY": "GARDEN CITY", "DORM_CAP": 1329 }, "geometry": { "type": "Point", "coordinates": [ -73.653321, 40.721439 ] } },
{ "type": "Feature", "properties": { "NAME": "AUSTIN'S SCHOOL OF SPA TECHNOLOGY", "CITY": "ALBANY", "DORM_CAP": -999 }, "geometry": { "type": "Point", "coordinates": [ -73.788706, 42.680756 ] } },
{ "type": "Feature", "properties": { "NAME": "PHILLIPS SCHOOL OF NURSING AT MOUNT SINAI BETH ISRAEL", "CITY": "NEW YORK", "DORM_CAP": -999 }, "geometry": { "type": "Point", "coordinates": [ -73.991085, 40.744884 ] } },
{ "type": "Feature", "properties": { "NAME": "BRYANT & STRATTON COLLEGE-SYRACUSE NORTH", "CITY": "LIVERPOOL", "DORM_CAP": -999 }, "geometry": { "type": "Point", "coordinates": [ -76.240182, 43.189609 ] } },
{ "type": "Feature", "properties": { "NAME": "CLARKSON UNIVERSITY", "CITY": "POTSDAM", "DORM_CAP": 2541 }, "geometry": { "type": "Point", "coordinates": [ -74.999947, 44.663761 ] } },
{ "type": "Feature", "properties": { "NAME": "COCHRAN SCHOOL OF NURSING", "CITY": "YONKERS", "DORM_CAP": -999 }, "geometry": { "type": "Point", "coordinates": [ -73.88629, 40.968797 ] } },
{ "type": "Feature", "properties": { "NAME": "CUNY BRONX COMMUNITY COLLEGE", "CITY": "BRONX", "DORM_CAP": -999 }, "geometry": { "type": "Point", "coordinates": [ -73.913054, 40.856999 ] } },
{ "type": "Feature", "properties": { "NAME": "COLLEGE OF STATEN ISLAND CUNY", "CITY": "STATEN ISLAND", "DORM_CAP": 442 }, "geometry": { "type": "Point", "coordinates": [ -74.148701, 40.603949 ] } },
{ "type": "Feature", "properties": { "NAME": "CUNY HOSTOS COMMUNITY COLLEGE", "CITY": "BRONX", "DORM_CAP": -999 }, "geometry": { "type": "Point", "coordinates": [ -73.927363, 40.817601 ] } },
{ "type": "Feature", "properties": { "NAME": "CUNY MEDGAR EVERS COLLEGE", "CITY": "BROOKLYN", "DORM_CAP": -999 }, "geometry": { "type": "Point", "coordinates": [ -73.957076, 40.666256 ] } },
{ "type": "Feature", "properties": { "NAME": "CUNY QUEENSBOROUGH COMMUNITY COLLEGE", "CITY": "BAYSIDE", "DORM_CAP": -999 }, "geometry": { "type": "Point", "coordinates": [ -73.754548, 40.754858 ] } },
{ "type": "Feature", "properties": { "NAME": "CUNY YORK COLLEGE", "CITY": "JAMAICA", "DORM_CAP": -999 }, "geometry": { "type": "Point", "coordinates": [ -73.794586, 40.702661 ] } },
{ "type": "Feature", "properties": { "NAME": "D'YOUVILLE COLLEGE", "CITY": "BUFFALO", "DORM_CAP": 472 }, "geometry": { "type": "Point", "coordinates": [ -78.890809, 42.902566 ] } },
{ "type": "Feature", "properties": { "NAME": "DOMINICAN COLLEGE OF BLAUVELT", "CITY": "ORANGEBURG", "DORM_CAP": 648 }, "geometry": { "type": "Point", "coordinates": [ -73.95234, 41.054111 ] } },
{ "type": "Feature", "properties": { "NAME": "FULTON-MONTGOMERY COMMUNITY COLLEGE", "CITY": "JOHNSTOWN", "DORM_CAP": 288 }, "geometry": { "type": "Point", "coordinates": [ -74.294146, 42.983048 ] } },
{ "type": "Feature", "properties": { "NAME": "HOUGHTON COLLEGE", "CITY": "HOUGHTON", "DORM_CAP": 1008 }, "geometry": { "type": "Point", "coordinates": [ -78.156882, 42.426841 ] } },
{ "type": "Feature", "properties": { "NAME": "LIU BROOKLYN", "CITY": "BROOKLYN", "DORM_CAP": 652 }, "geometry": { "type": "Point", "coordinates": [ -73.980872, 40.690134 ] } },
{ "type": "Feature", "properties": { "NAME": "MANHATTAN COLLEGE", "CITY": "RIVERDALE", "DORM_CAP": 2063 }, "geometry": { "type": "Point", "coordinates": [ -73.901893, 40.889756 ] } },
{ "type": "Feature", "properties": { "NAME": "MARIA COLLEGE OF ALBANY", "CITY": "ALBANY", "DORM_CAP": -999 }, "geometry": { "type": "Point", "coordinates": [ -73.805986, 42.656506 ] } },
{ "type": "Feature", "properties": { "NAME": "MARION S WHELAN SCHOOL OF NURSING OF GENEVA GENERAL HOSPITAL", "CITY": "GENEVA", "DORM_CAP": -999 }, "geometry": { "type": "Point", "coordinates": [ -76.988008, 42.877027 ] } },
{ "type": "Feature", "properties": { "NAME": "MIDWAY PARIS BEAUTY SCHOOL", "CITY": "RIDGEWOOD", "DORM_CAP": -999 }, "geometry": { "type": "Point", "coordinates": [ -73.909591, 40.699612 ] } },
{ "type": "Feature", "properties": { "NAME": "MOLLOY COLLEGE", "CITY": "ROCKVILLE CENTRE", "DORM_CAP": 278 }, "geometry": { "type": "Point", "coordinates": [ -73.626278, 40.68597 ] } },
{ "type": "Feature", "properties": { "NAME": "NEW YORK SCHOOL FOR MEDICAL AND DENTAL ASSISTANTS", "CITY": "LONG ISLAND CITY", "DORM_CAP": -999 }, "geometry": { "type": "Point", "coordinates": [ -73.931391, 40.744291 ] } },
{ "type": "Feature", "properties": { "NAME": "NIAGARA UNIVERSITY", "CITY": "NIAGARA UNIVERSITY", "DORM_CAP": 1437 }, "geometry": { "type": "Point", "coordinates": [ -79.036689, 43.137279 ] } },
{ "type": "Feature", "properties": { "NAME": "NYACK COLLEGE", "CITY": "NYACK", "DORM_CAP": 874 }, "geometry": { "type": "Point", "coordinates": [ -73.930973, 41.08632 ] } },
{ "type": "Feature", "properties": { "NAME": "OHR HAMEIR THEOLOGICAL SEMINARY", "CITY": "PEEKSKILL", "DORM_CAP": 150 }, "geometry": { "type": "Point", "coordinates": [ -73.889793, 41.268725 ] } },
{ "type": "Feature", "properties": { "NAME": "OTSEGO AREA BOCES-PRACTICAL NURSING PROGRAM", "CITY": "ONEONTA", "DORM_CAP": -999 }, "geometry": { "type": "Point", "coordinates": [ -74.922225, 42.58915 ] } },
{ "type": "Feature", "properties": { "NAME": "PAUL SMITHS COLLEGE OF ARTS AND SCIENCE", "CITY": "PAUL SMITHS", "DORM_CAP": 781 }, "geometry": { "type": "Point", "coordinates": [ -74.253006, 44.437366 ] } },
{ "type": "Feature", "properties": { "NAME": "CONTINENTAL SCHOOL OF BEAUTY CULTURE-WEST SENECA", "CITY": "WEST SENECA", "DORM_CAP": -999 }, "geometry": { "type": "Point", "coordinates": [ -78.754766, 42.828946 ] } },
{ "type": "Feature", "properties": { "NAME": "DAVIS COLLEGE", "CITY": "JOHNSON CITY", "DORM_CAP": 280 }, "geometry": { "type": "Point", "coordinates": [ -75.962421, 42.101092 ] } },
{ "type": "Feature", "properties": { "NAME": "SARAH LAWRENCE COLLEGE", "CITY": "BRONXVILLE", "DORM_CAP": 1100 }, "geometry": { "type": "Point", "coordinates": [ -73.84381, 40.934147 ] } },
{ "type": "Feature", "properties": { "NAME": "SCHENECTADY COUNTY COMMUNITY COLLEGE", "CITY": "SCHENECTADY", "DORM_CAP": -999 }, "geometry": { "type": "Point", "coordinates": [ -73.950008, 42.814412 ] } },
{ "type": "Feature", "properties": { "NAME": "SH'OR YOSHUV RABBINICAL COLLEGE", "CITY": "LAWRENCE", "DORM_CAP": 152 }, "geometry": { "type": "Point", "coordinates": [ -73.740366, 40.605336 ] } },
{ "type": "Feature", "properties": { "NAME": "SUNY-SYSTEM OFFICE", "CITY": "ALBANY", "DORM_CAP": -999 }, "geometry": { "type": "Point", "coordinates": [ -73.749737, 42.647976 ] } },
{ "type": "Feature", "properties": { "NAME": "YESHIVA SHAAR HATORAH", "CITY": "KEW GARDENS", "DORM_CAP": 176 }, "geometry": { "type": "Point", "coordinates": [ -73.8343, 40.703857 ] } },
{ "type": "Feature", "properties": { "NAME": "SUNY COLLEGE OF TECHNOLOGY AT ALFRED", "CITY": "ALFRED", "DORM_CAP": 2633 }, "geometry": { "type": "Point", "coordinates": [ -77.799168, 42.254693 ] } },
{ "type": "Feature", "properties": { "NAME": "SUNY COLLEGE OF AGRICULTURE AND TECHNOLOGY AT COBLESKILL", "CITY": "COBLESKILL", "DORM_CAP": 1890 }, "geometry": { "type": "Point", "coordinates": [ -74.497352, 42.674335 ] } },
{ "type": "Feature", "properties": { "NAME": "BINGHAMTON UNIVERSITY", "CITY": "VESTAL", "DORM_CAP": 7333 }, "geometry": { "type": "Point", "coordinates": [ -75.971143, 42.088049 ] } },
{ "type": "Feature", "properties": { "NAME": "SUNY AT FREDONIA", "CITY": "FREDONIA", "DORM_CAP": 2931 }, "geometry": { "type": "Point", "coordinates": [ -79.336109, 42.450961 ] } },
{ "type": "Feature", "properties": { "NAME": "TALMUDICAL INSTITUTE OF UPSTATE NEW YORK", "CITY": "ROCHESTER", "DORM_CAP": 100 }, "geometry": { "type": "Point", "coordinates": [ -77.574943, 43.147062 ] } },
{ "type": "Feature", "properties": { "NAME": "EXCELSIOR COLLEGE", "CITY": "ALBANY", "DORM_CAP": -999 }, "geometry": { "type": "Point", "coordinates": [ -73.863025, 42.705482 ] } },
{ "type": "Feature", "properties": { "NAME": "YESHIVAT MIKDASH MELECH", "CITY": "BROOKLYN", "DORM_CAP": 18 }, "geometry": { "type": "Point", "coordinates": [ -73.969614, 40.616427 ] } },
{ "type": "Feature", "properties": { "NAME": "YESHIVATH ZICHRON MOSHE", "CITY": "SOUTH FALLSBURG", "DORM_CAP": 210 }, "geometry": { "type": "Point", "coordinates": [ -74.621917, 41.730433 ] } },
{ "type": "Feature", "properties": { "NAME": "BEAUTY SCHOOL OF MIDDLETOWN", "CITY": "MIDDLETOWN", "DORM_CAP": -999 }, "geometry": { "type": "Point", "coordinates": [ -74.42818, 41.424746 ] } },
{ "type": "Feature", "properties": { "NAME": "NATIONAL TRACTOR TRAILER SCHOOL INC-BUFFALO", "CITY": "BUFFALO", "DORM_CAP": -999 }, "geometry": { "type": "Point", "coordinates": [ -78.858176, 42.865209 ] } },
{ "type": "Feature", "properties": { "NAME": "SCHUYLER STEUBEN CHEMUNG TIOGA ALLEGANY BOCES", "CITY": "ELMIRA", "DORM_CAP": -999 }, "geometry": { "type": "Point", "coordinates": [ -76.837955, 42.150704 ] } },
{ "type": "Feature", "properties": { "NAME": "BRYANT & STRATTON COLLEGE-HENRIETTA", "CITY": "ROCHESTER", "DORM_CAP": -999 }, "geometry": { "type": "Point", "coordinates": [ -77.599568, 43.085881 ] } },
{ "type": "Feature", "properties": { "NAME": "DAEMEN COLLEGE", "CITY": "AMHERST", "DORM_CAP": -999 }, "geometry": { "type": "Point", "coordinates": [ -78.789024, 42.965024 ] } },
{ "type": "Feature", "properties": { "NAME": "HUDSON VALLEY COMMUNITY COLLEGE", "CITY": "TROY", "DORM_CAP": -999 }, "geometry": { "type": "Point", "coordinates": [ -73.682141, 42.697276 ] } },
{ "type": "Feature", "properties": { "NAME": "SIENA COLLEGE", "CITY": "LOUDONVILLE", "DORM_CAP": 2446 }, "geometry": { "type": "Point", "coordinates": [ -73.751027, 42.718622 ] } },
{ "type": "Feature", "properties": { "NAME": "CAPRI COSMETOLOGY LEARNING CENTERS", "CITY": "NANUET", "DORM_CAP": -999 }, "geometry": { "type": "Point", "coordinates": [ -74.021088, 41.099737 ] } },
{ "type": "Feature", "properties": { "NAME": "SOTHEBY'S INSTITUTE OF ART-NY", "CITY": "NEW YORK", "DORM_CAP": -999 }, "geometry": { "type": "Point", "coordinates": [ -73.972588, 40.756399 ] } },
{ "type": "Feature", "properties": { "NAME": "AMERICAN ACADEMY OF PERSONAL TRAINING", "CITY": "NEW YORK", "DORM_CAP": -999 }, "geometry": { "type": "Point", "coordinates": [ -74.002465, 40.722342 ] } },
{ "type": "Feature", "properties": { "NAME": "EMPIRE BEAUTY SCHOOL-ROCHESTER", "CITY": "ROCHESTER", "DORM_CAP": -999 }, "geometry": { "type": "Point", "coordinates": [ -77.725611, 43.215698 ] } },
{ "type": "Feature", "properties": { "NAME": "CAYUGA COUNTY COMMUNITY COLLEGE", "CITY": "AUBURN", "DORM_CAP": -999 }, "geometry": { "type": "Point", "coordinates": [ -76.543191, 42.943802 ] } },
{ "type": "Feature", "properties": { "NAME": "GENESEE COMMUNITY COLLEGE", "CITY": "BATAVIA", "DORM_CAP": 447 }, "geometry": { "type": "Point", "coordinates": [ -78.138024, 43.016831 ] } },
{ "type": "Feature", "properties": { "NAME": "JAMESTOWN COMMUNITY COLLEGE", "CITY": "JAMESTOWN", "DORM_CAP": 360 }, "geometry": { "type": "Point", "coordinates": [ -79.218862, 42.115628 ] } },
{ "type": "Feature", "properties": { "NAME": "ARROJO COSMETOLOGY SCHOOL", "CITY": "NEW YORK", "DORM_CAP": -999 }, "geometry": { "type": "Point", "coordinates": [ -74.005162, 40.727565 ] } },
{ "type": "Feature", "properties": { "NAME": "CHRISTINE VALMY INTERNATIONAL SCHOOL FOR ESTHETICS, SKIN CARE & MAKEUP", "CITY": "NEW YORK", "DORM_CAP": -999 }, "geometry": { "type": "Point", "coordinates": [ -73.986557, 40.744988 ] } },
{ "type": "Feature", "properties": { "NAME": "BRITTANY BEAUTY ACADEMY", "CITY": "HICKSVILLE,", "DORM_CAP": -999 }, "geometry": { "type": "Point", "coordinates": [ -73.99254, 40.753045 ] } },
{ "type": "Feature", "properties": { "NAME": "ELECTRICAL TRAINING CENTER", "CITY": "COPIAGUE", "DORM_CAP": -999 }, "geometry": { "type": "Point", "coordinates": [ -73.40491, 40.680479 ] } },
{ "type": "Feature", "properties": { "NAME": "ACCESS CAREERS", "CITY": "HEMPSTEAD", "DORM_CAP": -999 }, "geometry": { "type": "Point", "coordinates": [ -73.615293, 40.709525 ] } },
{ "type": "Feature", "properties": { "NAME": "GRACE INTERNATIONAL BEAUTY SCHOOL", "CITY": "FLUSHING", "DORM_CAP": -999 }, "geometry": { "type": "Point", "coordinates": [ -73.828409, 40.75901 ] } },
{ "type": "Feature", "properties": { "NAME": "ALLIANCE COMPUTING SOLUTIONS", "CITY": "FLUSHING", "DORM_CAP": -999 }, "geometry": { "type": "Point", "coordinates": [ -73.831374, 40.761594 ] } },
{ "type": "Feature", "properties": { "NAME": "PAUL MITCHELL THE SCHOOL-SCHENECTADY", "CITY": "SCHENECTADY", "DORM_CAP": -999 }, "geometry": { "type": "Point", "coordinates": [ -73.942038, 42.813233 ] } },
{ "type": "Feature", "properties": { "NAME": "BRANFORD HALL CAREER INSTITUTE-AMITYVILLE", "CITY": "AMITYVILLE", "DORM_CAP": -999 }, "geometry": { "type": "Point", "coordinates": [ -73.427838, 40.70419 ] } },
{ "type": "Feature", "properties": { "NAME": "RABBINICAL COLLEGE OHR YISROEL", "CITY": "BROOKLYN", "DORM_CAP": 30 }, "geometry": { "type": "Point", "coordinates": [ -73.896474, 40.62979 ] } },
{ "type": "Feature", "properties": { "NAME": "EMPIRE BEAUTY SCHOOL-BUFFALO", "CITY": "CHEEKTOWAGA", "DORM_CAP": -999 }, "geometry": { "type": "Point", "coordinates": [ -78.755162, 42.908166 ] } },
{ "type": "Feature", "properties": { "NAME": "RELAY GRADUATE SCHOOL OF EDUCATION", "CITY": "NEW YORK", "DORM_CAP": -999 }, "geometry": { "type": "Point", "coordinates": [ -73.993411, 40.740509 ] } },
{ "type": "Feature", "properties": { "NAME": "NEW YORK INSTITUTE OF BEAUTY", "CITY": "ISLANDIA", "DORM_CAP": -999 }, "geometry": { "type": "Point", "coordinates": [ -73.189311, 40.80249 ] } },
{ "type": "Feature", "properties": { "NAME": "SHARP EDGEZ BARBER INSTITUTE", "CITY": "ROCHESTER", "DORM_CAP": -999 }, "geometry": { "type": "Point", "coordinates": [ -77.604739, 43.140276 ] } },
{ "type": "Feature", "properties": { "NAME": "YESHIVA GEDOLAH KESSER TORAH", "CITY": "MONSEY", "DORM_CAP": 80 }, "geometry": { "type": "Point", "coordinates": [ -74.068551, 41.124829 ] } },
{ "type": "Feature", "properties": { "NAME": "DEVRY COLLEGE OF NEW YORK", "CITY": "NEW YORK", "DORM_CAP": -999 }, "geometry": { "type": "Point", "coordinates": [ -73.983468, 40.747654 ] } },
{ "type": "Feature", "properties": { "NAME": "WESTCHESTER SCHOOL FOR DENTAL ASSISTANT", "CITY": "ELMSFORD", "DORM_CAP": -999 }, "geometry": { "type": "Point", "coordinates": [ -73.823556, 41.057111 ] } },
{ "type": "Feature", "properties": { "NAME": "BET MEDRASH GADOL ATERET TORAH", "CITY": "BROOKLYN", "DORM_CAP": -999 }, "geometry": { "type": "Point", "coordinates": [ -73.969879, 40.607773 ] } },
{ "type": "Feature", "properties": { "NAME": "YESHIVA GEDOLA OHR YISRAEL", "CITY": "BROOKLYN", "DORM_CAP": 26 }, "geometry": { "type": "Point", "coordinates": [ -73.944041, 40.61359 ] } },
{ "type": "Feature", "properties": { "NAME": "YESHIVA SHOLOM SHACHNA", "CITY": "BROOKLYM", "DORM_CAP": 102 }, "geometry": { "type": "Point", "coordinates": [ -73.975125, 40.627319 ] } },
{ "type": "Feature", "properties": { "NAME": "EASTERN SUFFOLK BOCES", "CITY": "RIVERHEAD", "DORM_CAP": -999 }, "geometry": { "type": "Point", "coordinates": [ -72.671979, 40.927872 ] } },
{ "type": "Feature", "properties": { "NAME": "EASTERN SUFFOLK BOCES", "CITY": "OAKDALE", "DORM_CAP": -999 }, "geometry": { "type": "Point", "coordinates": [ -73.110834, 40.744908 ] } },
{ "type": "Feature", "properties": { "NAME": "ELMEZZI GRADUATE SCHOOL OF MOLECULAR MEDICINE", "CITY": "MANHASSET", "DORM_CAP": -999 }, "geometry": { "type": "Point", "coordinates": [ -73.702288, 40.77582 ] } },
{ "type": "Feature", "properties": { "NAME": "CENTER FOR ULTRASOUND RESEARCH & EDUCATION", "CITY": "WHITE PLAINS", "DORM_CAP": -999 }, "geometry": { "type": "Point", "coordinates": [ -73.745181, 41.0285 ] } },
{ "type": "Feature", "properties": { "NAME": "CULINARY TECH CENTER", "CITY": "NEW YORK", "DORM_CAP": -999 }, "geometry": { "type": "Point", "coordinates": [ -73.998972, 40.754175 ] } },
{ "type": "Feature", "properties": { "NAME": "AMG SCHOOL OF LICENSED PRACTICAL NURSING", "CITY": "BROOKLYN", "DORM_CAP": -999 }, "geometry": { "type": "Point", "coordinates": [ -73.982207, 40.692824 ] } },
{ "type": "Feature", "properties": { "NAME": "BETH MEDRASH MEOR YITZCHOK", "CITY": "MONSEY", "DORM_CAP": -999 }, "geometry": { "type": "Point", "coordinates": [ -74.062416, 41.101027 ] } },
{ "type": "Feature", "properties": { "NAME": "ERIE COMMUNITY COLLEGE", "CITY": "BUFFALO", "DORM_CAP": -999 }, "geometry": { "type": "Point", "coordinates": [ -78.872679, 42.881771 ] } },
{ "type": "Feature", "properties": { "NAME": "MOHAWK VALLEY COMMUNITY COLLEGE", "CITY": "UTICA", "DORM_CAP": 510 }, "geometry": { "type": "Point", "coordinates": [ -75.217197, 43.077384 ] } },
{ "type": "Feature", "properties": { "NAME": "NORTH COUNTRY COMMUNITY COLLEGE", "CITY": "SARANAC LAKE", "DORM_CAP": 96 }, "geometry": { "type": "Point", "coordinates": [ -74.119981, 44.318645 ] } },
{ "type": "Feature", "properties": { "NAME": "NEW YORK INSTITUTE OF TECHNOLOGY", "CITY": "OLD WESTBURY", "DORM_CAP": 631 }, "geometry": { "type": "Point", "coordinates": [ -73.608885, 40.814402 ] } },
{ "type": "Feature", "properties": { "NAME": "SUNY COLLEGE AT POTSDAM", "CITY": "POTSDAM", "DORM_CAP": 2715 }, "geometry": { "type": "Point", "coordinates": [ -74.976889, 44.662862 ] } },
{ "type": "Feature", "properties": { "NAME": "MORRISVILLE STATE COLLEGE", "CITY": "MORRISVILLE", "DORM_CAP": 1678 }, "geometry": { "type": "Point", "coordinates": [ -75.643208, 42.891395 ] } },
{ "type": "Feature", "properties": { "NAME": "SUNY AT ALBANY", "CITY": "ALBANY", "DORM_CAP": 7702 }, "geometry": { "type": "Point", "coordinates": [ -73.825014, 42.686917 ] } },
{ "type": "Feature", "properties": { "NAME": "STONY BROOK UNIVERSITY", "CITY": "STONY BROOK", "DORM_CAP": 10301 }, "geometry": { "type": "Point", "coordinates": [ -73.12112, 40.91554 ] } },
{ "type": "Feature", "properties": { "NAME": "STATE UNIVERSITY OF NEW YORK AT NEW PALTZ", "CITY": "NEW PALTZ", "DORM_CAP": 3204 }, "geometry": { "type": "Point", "coordinates": [ -74.088727, 41.737205 ] } },
{ "type": "Feature", "properties": { "NAME": "SUNY ONEONTA", "CITY": "ONEONTA", "DORM_CAP": 3557 }, "geometry": { "type": "Point", "coordinates": [ -75.064186, 42.466555 ] } },
{ "type": "Feature", "properties": { "NAME": "SYRACUSE UNIVERSITY", "CITY": "SYRACUSE", "DORM_CAP": 8096 }, "geometry": { "type": "Point", "coordinates": [ -76.13267, 43.039891 ] } },
{ "type": "Feature", "properties": { "NAME": "COLUMBIA-GREENE COMMUNITY COLLEGE", "CITY": "HUDSON", "DORM_CAP": -999 }, "geometry": { "type": "Point", "coordinates": [ -73.818211, 42.217595 ] } },
{ "type": "Feature", "properties": { "NAME": "CONTINENTAL SCHOOL OF BEAUTY CULTURE-MATTYDALE", "CITY": "MATTYDALE", "DORM_CAP": -999 }, "geometry": { "type": "Point", "coordinates": [ -76.1485, 43.106134 ] } },
{ "type": "Feature", "properties": { "NAME": "FINGER LAKES SCHOOL OF MASSAGE", "CITY": "MT. KISCO", "DORM_CAP": -999 }, "geometry": { "type": "Point", "coordinates": [ -73.718373, 41.21715 ] } },
{ "type": "Feature", "properties": { "NAME": "MILDRED ELLEY-NEW YORK CAMPUS", "CITY": "NEW YORK", "DORM_CAP": -999 }, "geometry": { "type": "Point", "coordinates": [ -74.014004, 40.705781 ] } },
{ "type": "Feature", "properties": { "NAME": "ATELIER ESTHETIQUE INSTITUTE OF ESTHETICS", "CITY": "NEW YORK", "DORM_CAP": -999 }, "geometry": { "type": "Point", "coordinates": [ -73.98486, 40.742987 ] } },
{ "type": "Feature", "properties": { "NAME": "FORDHAM UNIVERSITY", "CITY": "BRONX", "DORM_CAP": 4673 }, "geometry": { "type": "Point", "coordinates": [ -73.889899, 40.861412 ] } },
{ "type": "Feature", "properties": { "NAME": "CHRIST THE KING SEMINARY", "CITY": "EAST AURORA", "DORM_CAP": 38 }, "geometry": { "type": "Point", "coordinates": [ -78.658576, 42.771218 ] } },
{ "type": "Feature", "properties": { "NAME": "BRYANT & STRATTON COLLEGE-ALBANY", "CITY": "ALBANY", "DORM_CAP": -999 }, "geometry": { "type": "Point", "coordinates": [ -73.809977, 42.698125 ] } },
{ "type": "Feature", "properties": { "NAME": "BERK TRADE AND BUSINESS SCHOOL", "CITY": "LONG ISLAND CITY", "DORM_CAP": -999 }, "geometry": { "type": "Point", "coordinates": [ -73.931301, 40.745064 ] } },
{ "type": "Feature", "properties": { "NAME": "BRITTANY BEAUTY ACADEMY", "CITY": "LEVITTOWN", "DORM_CAP": -999 }, "geometry": { "type": "Point", "coordinates": [ -73.515715, 40.724766 ] } },
{ "type": "Feature", "properties": { "NAME": "BRYANT & STRATTON COLLEGE-SYRACUSE", "CITY": "SYRACUSE", "DORM_CAP": 102 }, "geometry": { "type": "Point", "coordinates": [ -76.136679, 43.058795 ] } },
{ "type": "Feature", "properties": { "NAME": "BRYANT & STRATTON COLLEGE-BUFFALO", "CITY": "BUFFALO", "DORM_CAP": -999 }, "geometry": { "type": "Point", "coordinates": [ -78.873296, 42.886492 ] } },
{ "type": "Feature", "properties": { "NAME": "CAZENOVIA COLLEGE", "CITY": "CAZENOVIA", "DORM_CAP": 766 }, "geometry": { "type": "Point", "coordinates": [ -75.854054, 42.931946 ] } },
{ "type": "Feature", "properties": { "NAME": "CHERYL FELLS SCHOOL OF BUSINESS", "CITY": "NIAGARA FALLS", "DORM_CAP": -999 }, "geometry": { "type": "Point", "coordinates": [ -78.983526, 43.106577 ] } },
{ "type": "Feature", "properties": { "NAME": "EMPIRE BEAUTY SCHOOL-QUEENS", "CITY": "ASTORIA", "DORM_CAP": -999 }, "geometry": { "type": "Point", "coordinates": [ -73.919106, 40.759165 ] } },
{ "type": "Feature", "properties": { "NAME": "CONCORDIA COLLEGE-NEW YORK", "CITY": "BRONXVILLE", "DORM_CAP": 403 }, "geometry": { "type": "Point", "coordinates": [ -73.82212, 40.94253 ] } },
{ "type": "Feature", "properties": { "NAME": "CONTINENTAL SCHOOL OF BEAUTY CULTURE-BUFFALO", "CITY": "BUFFALO", "DORM_CAP": -999 }, "geometry": { "type": "Point", "coordinates": [ -78.829993, 42.957932 ] } },
{ "type": "Feature", "properties": { "NAME": "CORNELL UNIVERSITY", "CITY": "ITHACA", "DORM_CAP": 7154 }, "geometry": { "type": "Point", "coordinates": [ -76.476535, 42.448713 ] } },
{ "type": "Feature", "properties": { "NAME": "CULINARY INSTITUTE OF AMERICA", "CITY": "HYDE PARK", "DORM_CAP": 1766 }, "geometry": { "type": "Point", "coordinates": [ -73.933225, 41.745809 ] } },
{ "type": "Feature", "properties": { "NAME": "CUNY LAGUARDIA COMMUNITY COLLEGE", "CITY": "LONG ISLAND CITY", "DORM_CAP": -999 }, "geometry": { "type": "Point", "coordinates": [ -73.935057, 40.7445 ] } },
{ "type": "Feature", "properties": { "NAME": "CUNY LEHMAN COLLEGE", "CITY": "BRONX", "DORM_CAP": 21 }, "geometry": { "type": "Point", "coordinates": [ -73.894627, 40.873928 ] } },
{ "type": "Feature", "properties": { "NAME": "HOBART WILLIAM SMITH COLLEGES", "CITY": "GENEVA", "DORM_CAP": 1800 }, "geometry": { "type": "Point", "coordinates": [ -76.985986, 42.859012 ] } },
{ "type": "Feature", "properties": { "NAME": "HOFSTRA UNIVERSITY", "CITY": "HEMPSTEAD", "DORM_CAP": 3590 }, "geometry": { "type": "Point", "coordinates": [ -73.60078, 40.715959 ] } },
{ "type": "Feature", "properties": { "NAME": "JEFFERSON COMMUNITY COLLEGE", "CITY": "WATERTOWN", "DORM_CAP": 294 }, "geometry": { "type": "Point", "coordinates": [ -75.93554, 43.991148 ] } },
{ "type": "Feature", "properties": { "NAME": "KEHILATH YAKOV RABBINICAL SEMINARY", "CITY": "OSSINING", "DORM_CAP": 150 }, "geometry": { "type": "Point", "coordinates": [ -73.810559, 41.222686 ] } },
{ "type": "Feature", "properties": { "NAME": "LE MOYNE COLLEGE", "CITY": "SYRACUSE", "DORM_CAP": 1609 }, "geometry": { "type": "Point", "coordinates": [ -76.087507, 43.048763 ] } },
{ "type": "Feature", "properties": { "NAME": "MEDAILLE COLLEGE", "CITY": "BUFFALO", "DORM_CAP": 394 }, "geometry": { "type": "Point", "coordinates": [ -78.856569, 42.92895 ] } },
{ "type": "Feature", "properties": { "NAME": "MEMORIAL HOSPITAL SCHOOL OF RADIATION THERAPY TECHNOLOGY", "CITY": "NEW YORK", "DORM_CAP": -999 }, "geometry": { "type": "Point", "coordinates": [ -73.955729, 40.764766 ] } },
{ "type": "Feature", "properties": { "NAME": "MERCY COLLEGE", "CITY": "DOBBS FERRY", "DORM_CAP": 744 }, "geometry": { "type": "Point", "coordinates": [ -73.874571, 41.021436 ] } },
{ "type": "Feature", "properties": { "NAME": "MILDRED ELLEY SCHOOL-ALBANY CAMPUS", "CITY": "ALBANY", "DORM_CAP": -999 }, "geometry": { "type": "Point", "coordinates": [ -73.788615, 42.680833 ] } },
{ "type": "Feature", "properties": { "NAME": "MIRRER YESHIVA CENT INSTITUTE", "CITY": "BROOKLYN", "DORM_CAP": 100 }, "geometry": { "type": "Point", "coordinates": [ -73.966049, 40.605043 ] } },
{ "type": "Feature", "properties": { "NAME": "MONROE COLLEGE", "CITY": "BRONX", "DORM_CAP": 1000 }, "geometry": { "type": "Point", "coordinates": [ -73.900481, 40.864071 ] } },
{ "type": "Feature", "properties": { "NAME": "NAZARETH COLLEGE", "CITY": "ROCHESTER", "DORM_CAP": 1265 }, "geometry": { "type": "Point", "coordinates": [ -77.516523, 43.101502 ] } },
{ "type": "Feature", "properties": { "NAME": "THE COLLEGE OF NEW ROCHELLE", "CITY": "NEW ROCHELLE", "DORM_CAP": 331 }, "geometry": { "type": "Point", "coordinates": [ -73.781104, 40.899427 ] } },
{ "type": "Feature", "properties": { "NAME": "ST BERNARD'S SCHOOL OF THEOLOGY AND MINISTRY", "CITY": "ROCHESTER", "DORM_CAP": -999 }, "geometry": { "type": "Point", "coordinates": [ -77.526326, 43.102185 ] } },
{ "type": "Feature", "properties": { "NAME": "ST BONAVENTURE UNIVERSITY", "CITY": "SAINT BONAVENTURE", "DORM_CAP": 1471 }, "geometry": { "type": "Point", "coordinates": [ -78.482995, 42.080162 ] } },
{ "type": "Feature", "properties": { "NAME": "ST JOSEPH'S COLLEGE OF NURSING AT ST JOSEPH'S HOSPITAL HEALTH CENTER", "CITY": "SYRACUSE", "DORM_CAP": 30 }, "geometry": { "type": "Point", "coordinates": [ -76.148355, 43.055355 ] } },
{ "type": "Feature", "properties": { "NAME": "THE COLLEGE OF SAINT ROSE", "CITY": "ALBANY", "DORM_CAP": 1228 }, "geometry": { "type": "Point", "coordinates": [ -73.785615, 42.664074 ] } },
{ "type": "Feature", "properties": { "NAME": "SUNY COLLEGE OF TECHNOLOGY AT CANTON", "CITY": "CANTON", "DORM_CAP": 1250 }, "geometry": { "type": "Point", "coordinates": [ -75.184777, 44.605994 ] } },
{ "type": "Feature", "properties": { "NAME": "FARMINGDALE STATE COLLEGE", "CITY": "FARMINGDALE", "DORM_CAP": 615 }, "geometry": { "type": "Point", "coordinates": [ -73.426371, 40.75408 ] } },
{ "type": "Feature", "properties": { "NAME": "SUNY POLYTECHNIC INSTITUTE", "CITY": "UTICA", "DORM_CAP": 984 }, "geometry": { "type": "Point", "coordinates": [ -75.229841, 43.137701 ] } },
{ "type": "Feature", "properties": { "NAME": "SUNY CORTLAND", "CITY": "CORTLAND", "DORM_CAP": 3153 }, "geometry": { "type": "Point", "coordinates": [ -76.191855, 42.597308 ] } },
{ "type": "Feature", "properties": { "NAME": "TORAH TEMIMAH TALMUDICAL SEMINARY", "CITY": "BROOKLYN", "DORM_CAP": 150 }, "geometry": { "type": "Point", "coordinates": [ -73.971973, 40.635509 ] } },
{ "type": "Feature", "properties": { "NAME": "SCHOOL OF PROFESSIONAL HORTICULTURE, NEW YORK BOTANICAL GARDEN", "CITY": "BRONX", "DORM_CAP": -999 }, "geometry": { "type": "Point", "coordinates": [ -73.881955, 40.863936 ] } },
{ "type": "Feature", "properties": { "NAME": "ORLEANS NIAGARA BOCES-PRACTICAL NURSING PROGRAM", "CITY": "SANBORN", "DORM_CAP": -999 }, "geometry": { "type": "Point", "coordinates": [ -78.866537, 43.14606 ] } },
{ "type": "Feature", "properties": { "NAME": "LEON STUDIO ONE SCHOOL OF BEAUTY KNOWLEDGE", "CITY": "WILLIAMSVILLE", "DORM_CAP": -999 }, "geometry": { "type": "Point", "coordinates": [ -78.758098, 42.960266 ] } },
{ "type": "Feature", "properties": { "NAME": "SUFFOLK COUNTY COMMUNITY COLLEGE", "CITY": "SELDEN", "DORM_CAP": -999 }, "geometry": { "type": "Point", "coordinates": [ -73.056165, 40.848963 ] } },
{ "type": "Feature", "properties": { "NAME": "MADISON ONEIDA BOCES-PRACTICAL NURSING PROGRAM", "CITY": "VERONA", "DORM_CAP": -999 }, "geometry": { "type": "Point", "coordinates": [ -75.56033, 43.14082 ] } },
{ "type": "Feature", "properties": { "NAME": "EMPIRE BEAUTY SCHOOL-BROOKLYN", "CITY": "BROOKLYN", "DORM_CAP": -999 }, "geometry": { "type": "Point", "coordinates": [ -73.989884, 40.599279 ] } },
{ "type": "Feature", "properties": { "NAME": "ERIE 2 CHAUTAUQUA CATTARAUGUS BOCES-PRACTICAL NURSING PROGRAM", "CITY": "ANGOLA", "DORM_CAP": -999 }, "geometry": { "type": "Point", "coordinates": [ -79.040045, 42.648402 ] } },
{ "type": "Feature", "properties": { "NAME": "CUNY BROOKLYN COLLEGE", "CITY": "BROOKLYN", "DORM_CAP": -999 }, "geometry": { "type": "Point", "coordinates": [ -73.95312, 40.631912 ] } },
{ "type": "Feature", "properties": { "NAME": "YESHIVAS NOVOMINSK", "CITY": "BROOKLYN", "DORM_CAP": 182 }, "geometry": { "type": "Point", "coordinates": [ -73.989906, 40.623355 ] } },
{ "type": "Feature", "properties": { "NAME": "ORLO SCHOOL OF HAIR DESIGN AND COSMETOLOGY", "CITY": "ALBANY", "DORM_CAP": -999 }, "geometry": { "type": "Point", "coordinates": [ -73.784587, 42.674053 ] } },
{ "type": "Feature", "properties": { "NAME": "YESHIVA D'MONSEY RABBINICAL COLLEGE", "CITY": "MONSEY", "DORM_CAP": 120 }, "geometry": { "type": "Point", "coordinates": [ -74.065944, 41.115776 ] } },
{ "type": "Feature", "properties": { "NAME": "ITT TECHNICAL INSTITUTE-GETZVILLE", "CITY": "GETZVILLE", "DORM_CAP": -999 }, "geometry": { "type": "Point", "coordinates": [ -78.769098, 43.012093 ] } },
{ "type": "Feature", "properties": { "NAME": "PUTNAM WESTCHESTER BOCES-PRACTICAL NURSING PROGRAM", "CITY": "YORKTOWN HEIGHTS", "DORM_CAP": -999 }, "geometry": { "type": "Point", "coordinates": [ -73.765536, 41.278181 ] } },
{ "type": "Feature", "properties": { "NAME": "YESHIVA OF THE TELSHE ALUMNI", "CITY": "RIVERDALE", "DORM_CAP": 300 }, "geometry": { "type": "Point", "coordinates": [ -73.911096, 40.896668 ] } },
{ "type": "Feature", "properties": { "NAME": "LIU HUDSON AT WESTCHESTER", "CITY": "PURCHASE", "DORM_CAP": -999 }, "geometry": { "type": "Point", "coordinates": [ -73.705238, 41.048648 ] } },
{ "type": "Feature", "properties": { "NAME": "ITT TECHNICAL INSTITUTE-ALBANY", "CITY": "ALBANY", "DORM_CAP": -999 }, "geometry": { "type": "Point", "coordinates": [ -73.820134, 42.736379 ] } },
{ "type": "Feature", "properties": { "NAME": "ITT TECHNICAL INSTITUTE-LIVERPOOL", "CITY": "LIVERPOOL", "DORM_CAP": -999 }, "geometry": { "type": "Point", "coordinates": [ -76.174322, 43.0813 ] } },
{ "type": "Feature", "properties": { "NAME": "RIDLEY-LOWELL BUSINESS & TECHNICAL INSTITUTE-POUGHKEEPSIE", "CITY": "POUGHKEEPSIE", "DORM_CAP": -999 }, "geometry": { "type": "Point", "coordinates": [ -73.923961, 41.700589 ] } },
{ "type": "Feature", "properties": { "NAME": "ERIE 1 BOCES", "CITY": "WEST SENECA", "DORM_CAP": -999 }, "geometry": { "type": "Point", "coordinates": [ -78.78642, 42.851567 ] } },
{ "type": "Feature", "properties": { "NAME": "NEW YORK COLLEGE OF TRADITIONAL CHINESE MEDICINE", "CITY": "MINEOLA", "DORM_CAP": -999 }, "geometry": { "type": "Point", "coordinates": [ -73.638257, 40.742666 ] } },
{ "type": "Feature", "properties": { "NAME": "NORTHEASTERN SEMINARY", "CITY": "ROCHESTER", "DORM_CAP": -999 }, "geometry": { "type": "Point", "coordinates": [ -77.797762, 43.12625 ] } },
{ "type": "Feature", "properties": { "NAME": "NEW YORK AUTOMOTIVE AND DIESEL INSTITUTE", "CITY": "JAMAICA", "DORM_CAP": -999 }, "geometry": { "type": "Point", "coordinates": [ -73.781177, 40.705278 ] } },
{ "type": "Feature", "properties": { "NAME": "AVEDA INSTITUTE-NEW YORK", "CITY": "NEW YORK", "DORM_CAP": -999 }, "geometry": { "type": "Point", "coordinates": [ -74.004832, 40.725813 ] } },
{ "type": "Feature", "properties": { "NAME": "TALMUDICAL SEMINARY OF BOBOV", "CITY": "BROOKLYN", "DORM_CAP": -999 }, "geometry": { "type": "Point", "coordinates": [ -73.995267, 40.634729 ] } },
{ "type": "Feature", "properties": { "NAME": "NEW YORK METHODIST HOSPITAL CENTER FOR ALLIED HEALTH EDUCATION", "CITY": "BROOKLYN", "DORM_CAP": -999 }, "geometry": { "type": "Point", "coordinates": [ -73.959024, 40.608669 ] } },
{ "type": "Feature", "properties": { "NAME": "BRITTANY BEAUTY ACADEMY", "CITY": "BRONX", "DORM_CAP": -999 }, "geometry": { "type": "Point", "coordinates": [ -73.897254, 40.860986 ] } },
{ "type": "Feature", "properties": { "NAME": "LINCOLN TECHNICAL INSTITUTE-WHITESTONE", "CITY": "WHITESTONE", "DORM_CAP": -999 }, "geometry": { "type": "Point", "coordinates": [ -73.82885, 40.784113 ] } },
{ "type": "Feature", "properties": { "NAME": "ASSOCIATED BETH RIVKAH SCHOOLS", "CITY": "BROOKLYN", "DORM_CAP": -999 }, "geometry": { "type": "Point", "coordinates": [ -73.949781, 40.666069 ] } },
{ "type": "Feature", "properties": { "NAME": "BETH HATALMUD RABBINICAL COLLEGE", "CITY": "BROOKLYN", "DORM_CAP": -999 }, "geometry": { "type": "Point", "coordinates": [ -73.992684, 40.605256 ] } },
{ "type": "Feature", "properties": { "NAME": "BETH HAMEDRASH SHAAREI YOSHER INSTITUTE", "CITY": "BROOKLYN", "DORM_CAP": -999 }, "geometry": { "type": "Point", "coordinates": [ -73.981088, 40.635503 ] } },
{ "type": "Feature", "properties": { "NAME": "BRITTANY BEAUTY ACADEMY", "CITY": "BROOKLYN", "DORM_CAP": -999 }, "geometry": { "type": "Point", "coordinates": [ -74.020067, 40.63519 ] } },
{ "type": "Feature", "properties": { "NAME": "BROOKLYN LAW SCHOOL", "CITY": "BROOKLYN", "DORM_CAP": 405 }, "geometry": { "type": "Point", "coordinates": [ -73.989623, 40.691836 ] } },
{ "type": "Feature", "properties": { "NAME": "CLINTON COMMUNITY COLLEGE", "CITY": "PLATTSBURGH", "DORM_CAP": 254 }, "geometry": { "type": "Point", "coordinates": [ -73.442061, 44.648105 ] } },
{ "type": "Feature", "properties": { "NAME": "CUNY KINGSBOROUGH COMMUNITY COLLEGE", "CITY": "BROOKLYN", "DORM_CAP": -999 }, "geometry": { "type": "Point", "coordinates": [ -73.934779, 40.576446 ] } },
{ "type": "Feature", "properties": { "NAME": "CUNY NEW YORK CITY COLLEGE OF TECHNOLOGY", "CITY": "BROOKLYN", "DORM_CAP": -999 }, "geometry": { "type": "Point", "coordinates": [ -73.987856, 40.695483 ] } },
{ "type": "Feature", "properties": { "NAME": "CVPH MEDICAL CENTER SCHOOL OF RADIOLOGIC TECHNOLOGY", "CITY": "PLATTSBURGH", "DORM_CAP": -999 }, "geometry": { "type": "Point", "coordinates": [ -73.469597, 44.699929 ] } },
{ "type": "Feature", "properties": { "NAME": "ELMIRA BUSINESS INSTITUTE", "CITY": "ELMIRA", "DORM_CAP": -999 }, "geometry": { "type": "Point", "coordinates": [ -76.808918, 42.090381 ] } },
{ "type": "Feature", "properties": { "NAME": "JAMESTOWN BUSINESS COLLEGE", "CITY": "JAMESTOWN", "DORM_CAP": -999 }, "geometry": { "type": "Point", "coordinates": [ -79.249601, 42.095452 ] } },
{ "type": "Feature", "properties": { "NAME": "MACHZIKEI HADATH RABBINICAL COLLEGE", "CITY": "BROOKLYN", "DORM_CAP": 40 }, "geometry": { "type": "Point", "coordinates": [ -73.988378, 40.627937 ] } },
{ "type": "Feature", "properties": { "NAME": "MESIVTA TORAH VODAATH RABBINICAL SEMINARY", "CITY": "BROOKLYN", "DORM_CAP": 200 }, "geometry": { "type": "Point", "coordinates": [ -73.969395, 40.638199 ] } },
{ "type": "Feature", "properties": { "NAME": "MESIVTA OF EASTERN PARKWAY-YESHIVA ZICHRON MEILECH", "CITY": "BROOKLYN", "DORM_CAP": 35 }, "geometry": { "type": "Point", "coordinates": [ -73.979327, 40.635236 ] } },
{ "type": "Feature", "properties": { "NAME": "PRATT INSTITUTE-MAIN", "CITY": "BROOKLYN", "DORM_CAP": 1892 }, "geometry": { "type": "Point", "coordinates": [ -73.962149, 40.691154 ] } },
{ "type": "Feature", "properties": { "NAME": "RABBINICAL ACADEMY MESIVTA RABBI CHAIM BERLIN", "CITY": "BROOKLYN", "DORM_CAP": 128 }, "geometry": { "type": "Point", "coordinates": [ -73.963702, 40.618467 ] } },
{ "type": "Feature", "properties": { "NAME": "ST FRANCIS COLLEGE", "CITY": "BROOKLYN HEIGHTS", "DORM_CAP": 174 }, "geometry": { "type": "Point", "coordinates": [ -73.992164, 40.693228 ] } },
{ "type": "Feature", "properties": { "NAME": "ST. JOSEPH'S COLLEGE-NEW YORK", "CITY": "BROOKLYN", "DORM_CAP": -999 }, "geometry": { "type": "Point", "coordinates": [ -73.967891, 40.690348 ] } },
{ "type": "Feature", "properties": { "NAME": "SUNY COLLEGE OF TECHNOLOGY AT DELHI", "CITY": "DELHI", "DORM_CAP": 1840 }, "geometry": { "type": "Point", "coordinates": [ -74.924557, 42.27021 ] } },
{ "type": "Feature", "properties": { "NAME": "SUNY COLLEGE AT PLATTSBURGH", "CITY": "PLATTSBURGH", "DORM_CAP": 2337 }, "geometry": { "type": "Point", "coordinates": [ -73.466657, 44.693088 ] } },
{ "type": "Feature", "properties": { "NAME": "SUNY DOWNSTATE MEDICAL CENTER", "CITY": "BROOKLYN", "DORM_CAP": 400 }, "geometry": { "type": "Point", "coordinates": [ -73.943827, 40.655283 ] } },
{ "type": "Feature", "properties": { "NAME": "TALMUDICAL SEMINARY OHOLEI TORAH", "CITY": "BROOKLYN", "DORM_CAP": 200 }, "geometry": { "type": "Point", "coordinates": [ -73.945624, 40.670057 ] } },
{ "type": "Feature", "properties": { "NAME": "YESHIVA GEDOLAH IMREI YOSEF D'SPINKA", "CITY": "BROOKLYN", "DORM_CAP": -999 }, "geometry": { "type": "Point", "coordinates": [ -73.992443, 40.628585 ] } },
{ "type": "Feature", "properties": { "NAME": "ASA COLLEGE", "CITY": "BROOKLYN", "DORM_CAP": 350 }, "geometry": { "type": "Point", "coordinates": [ -73.986027, 40.692405 ] } },
{ "type": "Feature", "properties": { "NAME": "RABBINICAL COLLEGE OF OHR SHIMON YISROEL", "CITY": "BROOKLYN", "DORM_CAP": 40 }, "geometry": { "type": "Point", "coordinates": [ -73.95646, 40.704152 ] } },
{ "type": "Feature", "properties": { "NAME": "CLINTON ESSEX WARREN WASHINGTON BOCES", "CITY": "PLATTSBURGH", "DORM_CAP": -999 }, "geometry": { "type": "Point", "coordinates": [ -73.517628, 44.693199 ] } },
{ "type": "Feature", "properties": { "NAME": "CHARLES STUART SCHOOL OF DIAMOND SETTING", "CITY": "BROOKLYN", "DORM_CAP": -999 }, "geometry": { "type": "Point", "coordinates": [ -73.95843, 40.608508 ] } },
{ "type": "Feature", "properties": { "NAME": "ITHACA COLLEGE", "CITY": "ITHACA", "DORM_CAP": 4512 }, "geometry": { "type": "Point", "coordinates": [ -76.495057, 42.42264 ] } },
{ "type": "Feature", "properties": { "NAME": "BRIARCLIFFE COLLEGE", "CITY": "BETHPAGE", "DORM_CAP": -999 }, "geometry": { "type": "Point", "coordinates": [ -73.490213, 40.759564 ] } },
{ "type": "Feature", "properties": { "NAME": "BRYANT & STRATTON COLLEGE-GREECE", "CITY": "ROCHESTER", "DORM_CAP": -999 }, "geometry": { "type": "Point", "coordinates": [ -77.69559, 43.240547 ] } },
{ "type": "Feature", "properties": { "NAME": "COLGATE ROCHESTER CROZER DIVINITY SCHOOL", "CITY": "ROCHESTER", "DORM_CAP": 16 }, "geometry": { "type": "Point", "coordinates": [ -77.598601, 43.131867 ] } },
{ "type": "Feature", "properties": { "NAME": "COLGATE UNIVERSITY", "CITY": "HAMILTON", "DORM_CAP": 1 }, "geometry": { "type": "Point", "coordinates": [ -75.535218, 42.818175 ] } },
{ "type": "Feature", "properties": { "NAME": "CONTINENTAL SCHOOL OF BEAUTY CULTURE-ROCHESTER", "CITY": "ROCHESTER", "DORM_CAP": -999 }, "geometry": { "type": "Point", "coordinates": [ -77.626153, 43.086376 ] } },
{ "type": "Feature", "properties": { "NAME": "POMEROY COLLEGE OF NURSING AT CROUSE HOSPITAL", "CITY": "SYRACUSE", "DORM_CAP": 42 }, "geometry": { "type": "Point", "coordinates": [ -76.137558, 43.040018 ] } },
{ "type": "Feature", "properties": { "NAME": "BELANGER SCHOOL OF NURSING", "CITY": "SCHENECTADY", "DORM_CAP": -999 }, "geometry": { "type": "Point", "coordinates": [ -73.915834, 42.802969 ] } },
{ "type": "Feature", "properties": { "NAME": "HAMILTON COLLEGE", "CITY": "CLINTON", "DORM_CAP": 1887 }, "geometry": { "type": "Point", "coordinates": [ -75.407996, 43.054248 ] } },
{ "type": "Feature", "properties": { "NAME": "ISABELLA GRAHAM HART SCHOOL OF PRACTICAL NURSING", "CITY": "ROCHESTER", "DORM_CAP": -999 }, "geometry": { "type": "Point", "coordinates": [ -77.586984, 43.192282 ] } },
{ "type": "Feature", "properties": { "NAME": "KEUKA COLLEGE", "CITY": "KEUKA PARK", "DORM_CAP": 902 }, "geometry": { "type": "Point", "coordinates": [ -77.090562, 42.615253 ] } },
{ "type": "Feature", "properties": { "NAME": "LIU POST", "CITY": "BROOKVILLE", "DORM_CAP": 1381 }, "geometry": { "type": "Point", "coordinates": [ -73.593678, 40.820714 ] } },
{ "type": "Feature", "properties": { "NAME": "MODERN WELDING SCHOOL", "CITY": "SCHENECTADY", "DORM_CAP": -999 }, "geometry": { "type": "Point", "coordinates": [ -73.903157, 42.779193 ] } },
{ "type": "Feature", "properties": { "NAME": "EMPIRE BEAUTY SCHOOL-PEEKSKILL", "CITY": "PEEKSKILL", "DORM_CAP": -999 }, "geometry": { "type": "Point", "coordinates": [ -73.918806, 41.291484 ] } },
{ "type": "Feature", "properties": { "NAME": "ONONDAGA COMMUNITY COLLEGE", "CITY": "SYRACUSE", "DORM_CAP": 779 }, "geometry": { "type": "Point", "coordinates": [ -76.196098, 43.006275 ] } },
{ "type": "Feature", "properties": { "NAME": "RABBINICAL COLLEGE BETH SHRAGA", "CITY": "MONSEY", "DORM_CAP": 57 }, "geometry": { "type": "Point", "coordinates": [ -74.072925, 41.114293 ] } },
{ "type": "Feature", "properties": { "NAME": "RABBINICAL COLLEGE OF LONG ISLAND", "CITY": "LONG BEACH", "DORM_CAP": 265 }, "geometry": { "type": "Point", "coordinates": [ -73.67045, 40.586443 ] } },
{ "type": "Feature", "properties": { "NAME": "SAMARITAN HOSPITAL SCHOOL OF NURSING", "CITY": "TROY", "DORM_CAP": -999 }, "geometry": { "type": "Point", "coordinates": [ -73.672121, 42.7334 ] } },
{ "type": "Feature", "properties": { "NAME": "SKIDMORE COLLEGE", "CITY": "SARATOGA SPRINGS", "DORM_CAP": 2179 }, "geometry": { "type": "Point", "coordinates": [ -73.785322, 43.097027 ] } },
{ "type": "Feature", "properties": { "NAME": "SAINT VLADIMIRS ORTHODOX THEOLOGICAL SEMINARY", "CITY": "YONKERS", "DORM_CAP": 86 }, "geometry": { "type": "Point", "coordinates": [ -73.824557, 40.969429 ] } },
{ "type": "Feature", "properties": { "NAME": "SULLIVAN COUNTY COMMUNITY COLLEGE", "CITY": "LOCH SHELDRAKE", "DORM_CAP": 350 }, "geometry": { "type": "Point", "coordinates": [ -74.668804, 41.763889 ] } },
{ "type": "Feature", "properties": { "NAME": "SUNY COLLEGE AT OSWEGO", "CITY": "OSWEGO", "DORM_CAP": 4572 }, "geometry": { "type": "Point", "coordinates": [ -76.543885, 43.45377 ] } },
{ "type": "Feature", "properties": { "NAME": "SUNY COLLEGE OF ENVIRONMENTAL SCIENCE AND FORESTRY", "CITY": "SYRACUSE", "DORM_CAP": 620 }, "geometry": { "type": "Point", "coordinates": [ -76.138708, 43.034766 ] } },
{ "type": "Feature", "properties": { "NAME": "SUNY COLLEGE AT GENESEO", "CITY": "GENESEO", "DORM_CAP": 4471 }, "geometry": { "type": "Point", "coordinates": [ -77.821999, 42.796864 ] } },
{ "type": "Feature", "properties": { "NAME": "TECHNICAL CAREER INSTITUTES", "CITY": "NEW YORK", "DORM_CAP": -999 }, "geometry": { "type": "Point", "coordinates": [ -73.996048, 40.750572 ] } },
{ "type": "Feature", "properties": { "NAME": "SUNY WESTCHESTER COMMUNITY COLLEGE", "CITY": "VALHALLA", "DORM_CAP": -999 }, "geometry": { "type": "Point", "coordinates": [ -73.787806, 41.067313 ] } },
{ "type": "Feature", "properties": { "NAME": "YESHIVATH VIZNITZ", "CITY": "MONSEY", "DORM_CAP": 300 }, "geometry": { "type": "Point", "coordinates": [ -74.06668, 41.118707 ] } },
{ "type": "Feature", "properties": { "NAME": "BAIS MEDRASH ELYON", "CITY": "MONSEY", "DORM_CAP": 120 }, "geometry": { "type": "Point", "coordinates": [ -74.069798, 41.114079 ] } },
{ "type": "Feature", "properties": { "NAME": "NATIONAL TRACTOR TRAILER SCHOOL INC-LIVERPOOL", "CITY": "LIVERPOOL", "DORM_CAP": 24 }, "geometry": { "type": "Point", "coordinates": [ -76.193341, 43.140652 ] } },
{ "type": "Feature", "properties": { "NAME": "SHEAR EGO INTERNATIONAL SCHOOL OF HAIR DESIGN", "CITY": "ROCHESTER", "DORM_CAP": -999 }, "geometry": { "type": "Point", "coordinates": [ -77.602823, 43.208275 ] } },
{ "type": "Feature", "properties": { "NAME": "ROCKLAND COUNTY BOCES-PRACTICAL NURSING PROGRAM", "CITY": "WEST NYACK", "DORM_CAP": -999 }, "geometry": { "type": "Point", "coordinates": [ -73.980366, 41.120004 ] } },
{ "type": "Feature", "properties": { "NAME": "CANISIUS COLLEGE", "CITY": "BUFFALO", "DORM_CAP": 1169 }, "geometry": { "type": "Point", "coordinates": [ -78.85088, 42.924919 ] } },
{ "type": "Feature", "properties": { "NAME": "SUNY COLLEGE AT OLD WESTBURY", "CITY": "OLD WESTBURY", "DORM_CAP": 875 }, "geometry": { "type": "Point", "coordinates": [ -73.572989, 40.796671 ] } },
{ "type": "Feature", "properties": { "NAME": "JEFFERSON LEWIS BOCES-PRACTICAL NURSING PROGRAM", "CITY": "WATERTOWN", "DORM_CAP": -999 }, "geometry": { "type": "Point", "coordinates": [ -75.971374, 43.969625 ] } },
{ "type": "Feature", "properties": { "NAME": "BROOME DELAWARE TIOGA BOCES-PRACTICAL NURSING PROGRAM", "CITY": "BINGHAMTON", "DORM_CAP": -999 }, "geometry": { "type": "Point", "coordinates": [ -75.934739, 42.129648 ] } },
{ "type": "Feature", "properties": { "NAME": "JOHN PAOLO'S XTREME BEAUTY INSTITUTE-GOLDWELL PRODUCT ARTISTRY", "CITY": "BALLSTON SPA", "DORM_CAP": -999 }, "geometry": { "type": "Point", "coordinates": [ -73.840143, 43.021013 ] } },
{ "type": "Feature", "properties": { "NAME": "YESHIVA OF MACHZIKAI HADAS", "CITY": "BROOKLYN", "DORM_CAP": -999 }, "geometry": { "type": "Point", "coordinates": [ -73.98785, 40.638072 ] } },
{ "type": "Feature", "properties": { "NAME": "CUNY QUEENS COLLEGE", "CITY": "QUEENS", "DORM_CAP": 510 }, "geometry": { "type": "Point", "coordinates": [ -73.815387, 40.737771 ] } },
{ "type": "Feature", "properties": { "NAME": "RABBINICAL COLLEGE BOBOVER YESHIVA BNEI ZION", "CITY": "BROOKLYN", "DORM_CAP": 110 }, "geometry": { "type": "Point", "coordinates": [ -73.986126, 40.632515 ] } },
{ "type": "Feature", "properties": { "NAME": "RABBINICAL SEMINARY OF AMERICA", "CITY": "FLUSHING", "DORM_CAP": 208 }, "geometry": { "type": "Point", "coordinates": [ -73.817159, 40.723083 ] } },
{ "type": "Feature", "properties": { "NAME": "FINGER LAKES COMMUNITY COLLEGE", "CITY": "CANANDAIGUA", "DORM_CAP": -999 }, "geometry": { "type": "Point", "coordinates": [ -77.241801, 42.867556 ] } },
{ "type": "Feature", "properties": { "NAME": "ST JOHN'S UNIVERSITY-NEW YORK", "CITY": "QUEENS", "DORM_CAP": 3537 }, "geometry": { "type": "Point", "coordinates": [ -73.795027, 40.722027 ] } }
]
}
